[{"id": "VA8aPObRynlwR1TGzbzraQ", "alias": "founding-farmers-dc-washington-4", "name": "Founding Farmers - DC", "image_url": "https://s3-media2.fl.yelpcdn.com/bphoto/AWpidG8KMEEIRmqiKEnZHA/o.jpg", "is_closed": false, "url": "https://www.yelp.com/biz/founding-farmers-dc-washington-4?adjust_creative=aJsm0qZM7l1f7g6leJfetg&utm_campaign=yelp_api_v3&utm_medium=api_v3_business_search&utm_source=aJsm0qZM7l1f7g6leJfetg", "review_count": 10585, "categories": [{"alias": "tradamerican", "title": "American (Traditional)"}, {"alias": "coffee", "title": "Coffee & Tea"}, {"alias": "breakfast_brunch", "title": "Breakfast & Brunch"}], "rating": 4.0, "coordinates": {"latitude": 38.900313, "longitude": -77.044533}, "transactions": ["restaurant_reservation"], "price": "$$", "location": {"address1": "1924 Pennsylvania Ave NW", "address2": "", "address3": "", "city": "Washington, DC", "zip_code": "20006", "country": "US", "state": "DC", "display_address": ["1924 Pennsylvania Ave NW", "Washington, DC 20006"]}, "phone": "+12028228783", "display_phone": "(202) 822-8783", "distance": 1713.489882921938}, {"id": "HVDw0WV-tLIhF8mGYNq1vg", "alias": "tiki-taco-washington", "name": "Tiki Taco", "image_url": "https://s3-media2.fl.yelpcdn.com/bphoto/zyWPCJ5p8dZonZFSJ7YJ4w/o.jpg", "is_closed": false, "url": "https://www.yelp.com/biz/tiki-taco-washington?adjust_creative=aJsm0qZM7l1f7g6leJfetg&utm_campaign=yelp_api_v3&utm_medium=api_v3_business_search&utm_source=aJsm0qZM7l1f7g6leJfetg", "review_count": 29, "categories": [{"alias": "tacos", "title": "Tacos"}, {"alias": "hawaiian", "title": "Hawaiian"}, {"alias": "shavedice", "title": "Shaved Ice"}], "rating": 5.0, "coordinates": {"latitude": 38.90939, "longitude": -77.04541}, "transactions": ["pickup"], "price": "$", "location": {"address1": "2010 P St NW", "address2": "", "address3": null, "city": "Washington, DC", "zip_code": "20036", "country": "US", "state": "DC", "display_address": ["2010 P St NW", "Washington, DC 20036"]}, "phone": "+12029862121", "display_phone": "(202) 986-2121", "distance": 1293.414252479493}, {"id": "iyBbcXtQSBfiwFQZwVBNaQ", "alias": "old-ebbitt-grill-washington", "name": "Old Ebbitt Grill", "image_url": "https://s3-media2.fl.yelpcdn.com/bphoto/KBCezpuAIUVaMH3wGcMCKQ/o.jpg", "is_closed": false, "url": "https://www.yelp.com/biz/old-ebbitt-grill-washington?adjust_creative=aJsm0qZM7l1f7g6leJfetg&utm_campaign=yelp_api_v3&utm_medium=api_v3_business_search&utm_source=aJsm0qZM7l1f7g6leJfetg", "review_count": 6386, "categories": [{"alias": "bars", "title": "Bars"}, {"alias": "tradamerican", "title": "American (Traditional)"}, {"alias": "breakfast_brunch", "title": "Breakfast & Brunch"}], "rating": 4.0, "coordinates": {"latitude": 38.898005, "longitude": -77.033362}, "transactions": [], "price": "$$", "location": {"address1": "675 15th St NW", "address2": "", "address3": "", "city": "Washington, DC", "zip_code": "20005", "country": "US", "state": "DC", "display_address": ["675 15th St NW", "Washington, DC 20005"]}, "phone": "+12023474800", "display_phone": "(202) 347-4800", "distance": 1496.279982474307}, {"id": "B-NQjTjaIPURVtpUQe0-3w", "alias": "the-pig-washington-2", "name": "The Pig", "image_url": "https://s3-media3.fl.yelpcdn.com/bphoto/tfq_cx1hk2aebJZfGSu2HQ/o.jpg", "is_closed": false, "url": "https://www.yelp.com/biz/the-pig-washington-2?adjust_creative=aJsm0qZM7l1f7g6leJfetg&utm_campaign=yelp_api_v3&utm_medium=api_v3_business_search&utm_source=aJsm0qZM7l1f7g6leJfetg", "review_count": 1386, "categories": [{"alias": "tradamerican", "title": "American (Traditional)"}, {"alias": "cocktailbars", "title": "Cocktail Bars"}], "rating": 4.0, "coordinates": {"latitude": 38.90793, "longitude": -77.03229}, "transactions": ["restaurant_reservation"], "price": "$$", "location": {"address1": "1320 14th St NW", "address2": "", "address3": "", "city": "Washington, DC", "zip_code": "20005", "country": "US", "state": "DC", "display_address": ["1320 14th St NW", "Washington, DC 20005"]}, "phone": "+12022902821", "display_phone": "(202) 290-2821", "distance": 400.9432930439649}, {"id": "P5Z3SuQP612ff2Udmz9SbA", "alias": "napoli-pasta-bar-washington-2", "name": "Napoli Pasta Bar", "image_url": "https://s3-media3.fl.yelpcdn.com/bphoto/tBMFbLH89ZyDrsOPT78xRg/o.jpg", "is_closed": false, "url": "https://www.yelp.com/biz/napoli-pasta-bar-washington-2?adjust_creative=aJsm0qZM7l1f7g6leJfetg&utm_campaign=yelp_api_v3&utm_medium=api_v3_business_search&utm_source=aJsm0qZM7l1f7g6leJfetg", "review_count": 22, "categories": [{"alias": "italian", "title": "Italian"}], "rating": 4.5, "coordinates": {"latitude": 38.92573, "longitude": -77.02555}, "transactions": ["delivery", "pickup"], "location": {"address1": "2737 Sherman Ave NW", "address2": "", "address3": null, "city": "Washington, DC", "zip_code": "20001", "country": "US", "state": "DC", "display_address": ["2737 Sherman Ave NW", "Washington, DC 20001"]}, "phone": "+12025888752", "display_phone": "(202) 588-8752", "distance": 1665.6225042772812}, {"id": "jT7v_FvzIWKkg6_UXw1Ppw", "alias": "sababa-washington-2", "name": "Sababa", "image_url": "https://s3-media2.fl.yelpcdn.com/bphoto/XX20pz3Jx94wHX0PliArCg/o.jpg", "is_closed": false, "url": "https://www.yelp.com/biz/sababa-washington-2?adjust_creative=aJsm0qZM7l1f7g6leJfetg&utm_campaign=yelp_api_v3&utm_medium=api_v3_business_search&utm_source=aJsm0qZM7l1f7g6leJfetg", "review_count": 21, "categories": [{"alias": "mideastern", "title": "Middle Eastern"}], "rating": 4.0, "coordinates": {"latitude": 38.93388, "longitude": -77.05707}, "transactions": [], "location": {"address1": "3311 Connecticut Ave NW", "address2": "", "address3": null, "city": "Washington, DC", "zip_code": "20008", "country": "US", "state": "DC", "display_address": ["3311 Connecticut Ave NW", "Washington, DC 20008"]}, "phone": "+12022446750", "display_phone": "(202) 244-6750", "distance": 3396.398089697476}, {"id": "vmwPSOZZDAmGELwrjjWYlg", "alias": "1310-kitchen-and-bar-washington", "name": "1310 Kitchen & Bar", "image_url": "https://s3-media2.fl.yelpcdn.com/bphoto/E9JBcFfhd45pKtsHBOl7FA/o.jpg", "is_closed": false, "url": "https://www.yelp.com/biz/1310-kitchen-and-bar-washington?adjust_creative=aJsm0qZM7l1f7g6leJfetg&utm_campaign=yelp_api_v3&utm_medium=api_v3_business_search&utm_source=aJsm0qZM7l1f7g6leJfetg", "review_count": 7, "categories": [{"alias": "breakfast_brunch", "title": "Breakfast & Brunch"}, {"alias": "newamerican", "title": "American (New)"}], "rating": 4.0, "coordinates": {"latitude": 38.90721, "longitude": -77.06356}, "transactions": [], "price": "$$", "location": {"address1": "1310 Wisconsin Ave NW", "address2": null, "address3": "", "city": "Washington, DC", "zip_code": "20007", "country": "US", "state": "DC", "display_address": ["1310 Wisconsin Ave NW", "Washington, DC 20007"]}, "phone": "+12023338232", "display_phone": "(202) 333-8232", "distance": 2882.9929710893093}, {"id": "sxNUpaApjh_54-l9RcJRDA", "alias": "farmers-fishers-bakers-washington", "name": "Farmers Fishers Bakers", "image_url": "https://s3-media2.fl.yelpcdn.com/bphoto/sYT0ZP0ZRzlvpGYY0SV1Xg/o.jpg", "is_closed": false, "url": "https://www.yelp.com/biz/farmers-fishers-bakers-washington?adjust_creative=aJsm0qZM7l1f7g6leJfetg&utm_campaign=yelp_api_v3&utm_medium=api_v3_business_search&utm_source=aJsm0qZM7l1f7g6leJfetg", "review_count": 2681, "categories": [{"alias": "newamerican", "title": "American (New)"}, {"alias": "breakfast_brunch", "title": "Breakfast & Brunch"}, {"alias": "vegetarian", "title": "Vegetarian"}], "rating": 4.0, "coordinates": {"latitude": 38.9014030543526, "longitude": -77.0599942827455}, "transactions": ["restaurant_reservation"], "price": "$$", "location": {"address1": "3000 K St NW", "address2": "", "address3": "", "city": "Washington, DC", "zip_code": "20007", "country": "US", "state": "DC", "display_address": ["3000 K St NW", "Washington, DC 20007"]}, "phone": "+12022988783", "display_phone": "(202) 298-8783", "distance": 2767.890884344161}, {"id": "A-89i7_ipR-QOlg4Z1echQ", "alias": "kaliwa-washington", "name": "Kaliwa", "image_url": "https://s3-media1.fl.yelpcdn.com/bphoto/0HYlo4zwWCPphEhmqFpsXQ/o.jpg", "is_closed": false, "url": "https://www.yelp.com/biz/kaliwa-washington?adjust_creative=aJsm0qZM7l1f7g6leJfetg&utm_campaign=yelp_api_v3&utm_medium=api_v3_business_search&utm_source=aJsm0qZM7l1f7g6leJfetg", "review_count": 51, "categories": [{"alias": "filipino", "title": "Filipino"}, {"alias": "thai", "title": "Thai"}, {"alias": "korean", "title": "Korean"}], "rating": 3.0, "coordinates": {"latitude": 38.8784577, "longitude": -77.0239817}, "transactions": [], "price": "$$", "location": {"address1": "751 Wharf St SW", "address2": "", "address3": null, "city": "Washington, DC", "zip_code": "20024", "country": "US", "state": "DC", "display_address": ["751 Wharf St SW", "Washington, DC 20024"]}, "phone": "+12025164739", "display_phone": "(202) 516-4739", "distance": 3673.970687713146}, {"id": "zeTqaVpvssznHt_1IxChXQ", "alias": "blue-duck-tavern-washington", "name": "Blue Duck Tavern", "image_url": "https://s3-media2.fl.yelpcdn.com/bphoto/_U3d8g-JyZ3RgkhBvXCVgg/o.jpg", "is_closed": false, "url": "https://www.yelp.com/biz/blue-duck-tavern-washington?adjust_creative=aJsm0qZM7l1f7g6leJfetg&utm_campaign=yelp_api_v3&utm_medium=api_v3_business_search&utm_source=aJsm0qZM7l1f7g6leJfetg", "review_count": 1989, "categories": [{"alias": "newamerican", "title": "American (New)"}, {"alias": "breakfast_brunch", "title": "Breakfast & Brunch"}, {"alias": "cocktailbars", "title": "Cocktail Bars"}], "rating": 4.0, "coordinates": {"latitude": 38.9055917636612, "longitude": -77.0511932944776}, "transactions": [], "price": "$$$", "location": {"address1": "1201 24th St NW", "address2": "", "address3": "", "city": "Washington, DC", "zip_code": "20037", "country": "US", "state": "DC", "display_address": ["1201 24th St NW", "Washington, DC 20037"]}, "phone": "+12024196755", "display_phone": "(202) 419-6755", "distance": 1888.0645039295632}, {"id": "TVoDzjDVu93x3q2R64aKZg", "alias": "momo-yakitori-washington-4", "name": "Momo Yakitori", "image_url": "https://s3-media4.fl.yelpcdn.com/bphoto/PJ0gFecaoDxLcGYqBFuezA/o.jpg", "is_closed": false, "url": "https://www.yelp.com/biz/momo-yakitori-washington-4?adjust_creative=aJsm0qZM7l1f7g6leJfetg&utm_campaign=yelp_api_v3&utm_medium=api_v3_business_search&utm_source=aJsm0qZM7l1f7g6leJfetg", "review_count": 20, "categories": [{"alias": "japanese", "title": "Japanese"}], "rating": 4.5, "coordinates": {"latitude": 38.9306181866018, "longitude": -76.9735096022487}, "transactions": [], "price": "$$", "location": {"address1": "2214 Rhode Island Ave NE", "address2": "", "address3": null, "city": "Washington, DC", "zip_code": "20018", "country": "US", "state": "DC", "display_address": ["2214 Rhode Island Ave NE", "Washington, DC 20018"]}, "phone": "", "display_phone": "", "distance": 5389.290091297782}, {"id": "9X0F8gl4mPSSFHkxSB2lXA", "alias": "il-canale-washington-2", "name": "il Canale", "image_url": "https://s3-media1.fl.yelpcdn.com/bphoto/vVRuHU743nlLAM57A3FraQ/o.jpg", "is_closed": false, "url": "https://www.yelp.com/biz/il-canale-washington-2?adjust_creative=aJsm0qZM7l1f7g6leJfetg&utm_campaign=yelp_api_v3&utm_medium=api_v3_business_search&utm_source=aJsm0qZM7l1f7g6leJfetg", "review_count": 1859, "categories": [{"alias": "italian", "title": "Italian"}, {"alias": "pizza", "title": "Pizza"}], "rating": 4.0, "coordinates": {"latitude": 38.904493, "longitude": -77.0609744}, "transactions": ["pickup"], "price": "$$", "location": {"address1": "1065 31st St NW", "address2": "", "address3": "", "city": "Washington, DC", "zip_code": "20007", "country": "US", "state": "DC", "display_address": ["1065 31st St NW", "Washington, DC 20007"]}, "phone": "+12023374444", "display_phone": "(202) 337-4444", "distance": 2731.530822512644}, {"id": "uPxaHQsTtZ-Km8arqPsPCA", "alias": "fancy-radish-washington", "name": "Fancy Radish", "image_url": "https://s3-media2.fl.yelpcdn.com/bphoto/MV-9MpHHk0LhjIs6o5oFUQ/o.jpg", "is_closed": false, "url": "https://www.yelp.com/biz/fancy-radish-washington?adjust_creative=aJsm0qZM7l1f7g6leJfetg&utm_campaign=yelp_api_v3&utm_medium=api_v3_business_search&utm_source=aJsm0qZM7l1f7g6leJfetg", "review_count": 13, "categories": [{"alias": "newamerican", "title": "American (New)"}, {"alias": "vegan", "title": "Vegan"}], "rating": 4.5, "coordinates": {"latitude": 38.9002534957578, "longitude": -76.998243165546}, "transactions": [], "price": "$$", "location": {"address1": "600 H St NE", "address2": "", "address3": null, "city": "Washington, DC", "zip_code": "20002", "country": "US", "state": "DC", "display_address": ["600 H St NE", "Washington, DC 20002"]}, "phone": "+12026758341", "display_phone": "(202) 675-8341", "distance": 3060.266148984467}, {"id": "urnTL375jGSNJM2xZFyO_A", "alias": "gradys-washington", "name": "Grady's", "image_url": "https://s3-media2.fl.yelpcdn.com/bphoto/H6nmloR51ZXIcGw2WTKZCg/o.jpg", "is_closed": false, "url": "https://www.yelp.com/biz/gradys-washington?adjust_creative=aJsm0qZM7l1f7g6leJfetg&utm_campaign=yelp_api_v3&utm_medium=api_v3_business_search&utm_source=aJsm0qZM7l1f7g6leJfetg", "review_count": 25, "categories": [{"alias": "newamerican", "title": "American (New)"}], "rating": 4.5, "coordinates": {"latitude": 38.91959, "longitude": -77.0323499}, "transactions": ["restaurant_reservation"], "price": "$$", "location": {"address1": "2210 14th St NW", "address2": "", "address3": null, "city": "Washington, DC", "zip_code": "20009", "country": "US", "state": "DC", "display_address": ["2210 14th St NW", "Washington, DC 20009"]}, "phone": "+12027910270", "display_phone": "(202) 791-0270", "distance": 934.1417374195096}, {"id": "QZk9bwPNhv2oRyi1JgCJ4g", "alias": "all-purpose-washington-4", "name": "All Purpose", "image_url": "https://s3-media3.fl.yelpcdn.com/bphoto/vaWAWpXY7WQYylZedYO-fw/o.jpg", "is_closed": false, "url": "https://www.yelp.com/biz/all-purpose-washington-4?adjust_creative=aJsm0qZM7l1f7g6leJfetg&utm_campaign=yelp_api_v3&utm_medium=api_v3_business_search&utm_source=aJsm0qZM7l1f7g6leJfetg", "review_count": 10, "categories": [{"alias": "pizza", "title": "Pizza"}], "rating": 4.5, "coordinates": {"latitude": 38.87122, "longitude": -77.00666}, "transactions": [], "location": {"address1": "79 Potomac Ave SE", "address2": "", "address3": null, "city": "Washington, DC", "zip_code": "20003", "country": "US", "state": "DC", "display_address": ["79 Potomac Ave SE", "Washington, DC 20003"]}, "phone": "+12026291894", "display_phone": "(202) 629-1894", "distance": 4920.092745842088}, {"id": "8kuBHJm8Ncq7FyfT7GIIug", "alias": "the-fainting-goat-washington", "name": "The Fainting Goat", "image_url": "https://s3-media3.fl.yelpcdn.com/bphoto/EG9dz_m4kqmALZVHTJ_wXg/o.jpg", "is_closed": false, "url": "https://www.yelp.com/biz/the-fainting-goat-washington?adjust_creative=aJsm0qZM7l1f7g6leJfetg&utm_campaign=yelp_api_v3&utm_medium=api_v3_business_search&utm_source=aJsm0qZM7l1f7g6leJfetg", "review_count": 531, "categories": [{"alias": "newamerican", "title": "American (New)"}, {"alias": "bars", "title": "Bars"}], "rating": 4.0, "coordinates": {"latitude": 38.9167735, "longitude": -77.0308397}, "transactions": [], "price": "$$", "location": {"address1": "1330 U St NW", "address2": "", "address3": "", "city": "Washington, DC", "zip_code": "20009", "country": "US", "state": "DC", "display_address": ["1330 U St NW", "Washington, DC 20009"]}, "phone": "+12027350344", "display_phone": "(202) 735-0344", "distance": 609.5851601979055}, {"id": "wTz5b1FR8Af06LKjf9eTDQ", "alias": "daikaya-izakaya-washington-8", "name": "Daikaya Izakaya", "image_url": "https://s3-media3.fl.yelpcdn.com/bphoto/Nw-C41E7Fvmfs17ChFyzWw/o.jpg", "is_closed": false, "url": "https://www.yelp.com/biz/daikaya-izakaya-washington-8?adjust_creative=aJsm0qZM7l1f7g6leJfetg&utm_campaign=yelp_api_v3&utm_medium=api_v3_business_search&utm_source=aJsm0qZM7l1f7g6leJfetg", "review_count": 646, "categories": [{"alias": "izakaya", "title": "Izakaya"}], "rating": 4.0, "coordinates": {"latitude": 38.8986, "longitude": -77.0195899}, "transactions": [], "price": "$$", "location": {"address1": "705 6th St NW", "address2": "Fl 2", "address3": "", "city": "Washington, DC", "zip_code": "20001", "country": "US", "state": "DC", "display_address": ["705 6th St NW", "Fl 2", "Washington, DC 20001"]}, "phone": "+12025891600", "display_phone": "(202) 589-1600", "distance": 1704.5909854841868}, {"id": "a-5Jd4irVqkaxRs-AQ-HGw", "alias": "roses-luxury-washington", "name": "Rose's Luxury", "image_url": "https://s3-media3.fl.yelpcdn.com/bphoto/AwhITdGBJkXIYG_ylabsQg/o.jpg", "is_closed": false, "url": "https://www.yelp.com/biz/roses-luxury-washington?adjust_creative=aJsm0qZM7l1f7g6leJfetg&utm_campaign=yelp_api_v3&utm_medium=api_v3_business_search&utm_source=aJsm0qZM7l1f7g6leJfetg", "review_count": 1642, "categories": [{"alias": "newamerican", "title": "American (New)"}, {"alias": "italian", "title": "Italian"}], "rating": 4.5, "coordinates": {"latitude": 38.88063, "longitude": -76.99534}, "transactions": [], "price": "$$$", "location": {"address1": "717 8th St SE", "address2": null, "address3": "", "city": "Washington, DC", "zip_code": "20003", "country": "US", "state": "DC", "display_address": ["717 8th St SE", "Washington, DC 20003"]}, "phone": "+12025808889", "display_phone": "(202) 580-8889", "distance": 4577.759949213042}, {"id": "mwITCJ01xefimUssqOM6uw", "alias": "dorjee-momo-washington-2", "name": "Dorjee Momo", "image_url": "https://s3-media2.fl.yelpcdn.com/bphoto/52siEE1_rInjw65o3AewyA/o.jpg", "is_closed": false, "url": "https://www.yelp.com/biz/dorjee-momo-washington-2?adjust_creative=aJsm0qZM7l1f7g6leJfetg&utm_campaign=yelp_api_v3&utm_medium=api_v3_business_search&utm_source=aJsm0qZM7l1f7g6leJfetg", "review_count": 13, "categories": [{"alias": "himalayan", "title": "Himalayan/Nepalese"}, {"alias": "hotpot", "title": "Hot Pot"}], "rating": 4.5, "coordinates": {"latitude": 38.88559, "longitude": -76.99646}, "transactions": [], "price": "$$", "location": {"address1": "317 7th St SE", "address2": "", "address3": null, "city": "Washington, DC", "zip_code": "20003", "country": "US", "state": "DC", "display_address": ["317 7th St SE", "Washington, DC 20003"]}, "phone": "", "display_phone": "", "distance": 4117.36572072974}, {"id": "oXdLd4LNWEcgSqPLcsVO9A", "alias": "ambar-washington", "name": "Ambar", "image_url": "https://s3-media1.fl.yelpcdn.com/bphoto/faK8cwCC45kUe0VoYNLCUg/o.jpg", "is_closed": false, "url": "https://www.yelp.com/biz/ambar-washington?adjust_creative=aJsm0qZM7l1f7g6leJfetg&utm_campaign=yelp_api_v3&utm_medium=api_v3_business_search&utm_source=aJsm0qZM7l1f7g6leJfetg", "review_count": 1129, "categories": [{"alias": "modern_european", "title": "Modern European"}], "rating": 4.5, "coordinates": {"latitude": 38.88208, "longitude": -76.99534}, "transactions": ["restaurant_reservation", "pickup"], "price": "$$", "location": {"address1": "523 8th St SE", "address2": "", "address3": "", "city": "Washington, DC", "zip_code": "20003", "country": "US", "state": "DC", "display_address": ["523 8th St SE", "Washington, DC 20003"]}, "phone": "+12028133039", "display_phone": "(202) 813-3039", "distance": 4463.598817771556}, {"id": "y_K6LdyE6unzkE_hMi1mfQ", "alias": "city-tap-house-washington", "name": "City Tap House", "image_url": "https://s3-media1.fl.yelpcdn.com/bphoto/mSgHanQcD9kABSB-YRE4pw/o.jpg", "is_closed": false, "url": "https://www.yelp.com/biz/city-tap-house-washington?adjust_creative=aJsm0qZM7l1f7g6leJfetg&utm_campaign=yelp_api_v3&utm_medium=api_v3_business_search&utm_source=aJsm0qZM7l1f7g6leJfetg", "review_count": 1221, "categories": [{"alias": "bars", "title": "Bars"}, {"alias": "newamerican", "title": "American (New)"}], "rating": 4.0, "coordinates": {"latitude": 38.9011329, "longitude": -77.0236995}, "transactions": [], "price": "$$", "location": {"address1": "901 I St NW", "address2": "", "address3": "", "city": "Washington, DC", "zip_code": "20001", "country": "US", "state": "DC", "display_address": ["901 I St NW", "Washington, DC 20001"]}, "phone": "+12027335333", "display_phone": "(202) 733-5333", "distance": 1279.495670434201}, {"id": "gSP06A0M972ahIlU3ivy2w", "alias": "farmbird-washington", "name": "Farmbird", "image_url": "https://s3-media2.fl.yelpcdn.com/bphoto/NX30efZFI--IryN9J6Vvjg/o.jpg", "is_closed": false, "url": "https://www.yelp.com/biz/farmbird-washington?adjust_creative=aJsm0qZM7l1f7g6leJfetg&utm_campaign=yelp_api_v3&utm_medium=api_v3_business_search&utm_source=aJsm0qZM7l1f7g6leJfetg", "review_count": 240, "categories": [{"alias": "chickenshop", "title": "Chicken Shop"}, {"alias": "newamerican", "title": "American (New)"}, {"alias": "tradamerican", "title": "American (Traditional)"}], "rating": 5.0, "coordinates": {"latitude": 38.89984, "longitude": -76.99734}, "transactions": [], "price": "$$", "location": {"address1": "625A H St NE", "address2": null, "address3": "", "city": "Washington, DC", "zip_code": "20002", "country": "US", "state": "DC", "display_address": ["625A H St NE", "Washington, DC 20002"]}, "phone": "+12025066778", "display_phone": "(202) 506-6778", "distance": 3154.9976038444765}, {"id": "8m22ZO0_-qLjLPRrL2zawA", "alias": "the-alibi-washington", "name": "The Alibi", "image_url": "https://s3-media2.fl.yelpcdn.com/bphoto/dx1-GLxRiobTMKoDfWKMxw/o.jpg", "is_closed": false, "url": "https://www.yelp.com/biz/the-alibi-washington?adjust_creative=aJsm0qZM7l1f7g6leJfetg&utm_campaign=yelp_api_v3&utm_medium=api_v3_business_search&utm_source=aJsm0qZM7l1f7g6leJfetg", "review_count": 231, "categories": [{"alias": "british", "title": "British"}, {"alias": "pubs", "title": "Pubs"}, {"alias": "seafood", "title": "Seafood"}], "rating": 4.5, "coordinates": {"latitude": 38.89338, "longitude": -77.01346}, "transactions": [], "price": "$$", "location": {"address1": "237 2nd St NW", "address2": null, "address3": "", "city": "Washington, DC", "zip_code": "20001", "country": "US", "state": "DC", "display_address": ["237 2nd St NW", "Washington, DC 20001"]}, "phone": "+12023472237", "display_phone": "(202) 347-2237", "distance": 2482.9998854957707}, {"id": "bCQEdpKSY563iAzq7cMcGA", "alias": "the-capital-burger-washington-5", "name": "The Capital Burger", "image_url": "https://s3-media2.fl.yelpcdn.com/bphoto/ExptMKUD9Uu_dPuQgpuAOA/o.jpg", "is_closed": false, "url": "https://www.yelp.com/biz/the-capital-burger-washington-5?adjust_creative=aJsm0qZM7l1f7g6leJfetg&utm_campaign=yelp_api_v3&utm_medium=api_v3_business_search&utm_source=aJsm0qZM7l1f7g6leJfetg", "review_count": 72, "categories": [{"alias": "burgers", "title": "Burgers"}, {"alias": "cocktailbars", "title": "Cocktail Bars"}, {"alias": "tradamerican", "title": "American (Traditional)"}], "rating": 4.0, "coordinates": {"latitude": 38.90325, "longitude": -77.0216}, "transactions": [], "price": "$$", "location": {"address1": "1005 7th St NW", "address2": null, "address3": null, "city": "Washington, DC", "zip_code": "20001", "country": "US", "state": "DC", "display_address": ["1005 7th St NW", "Washington, DC 20001"]}, "phone": "+12026380414", "display_phone": "(202) 638-0414", "distance": 1183.9531017918878}, {"id": "l7KB4d-hX2rv32Lt6sqRsA", "alias": "whaleys-washington", "name": "Whaley's", "image_url": "https://s3-media2.fl.yelpcdn.com/bphoto/ZUM9oNDK6ow4jyEjvOY26Q/o.jpg", "is_closed": false, "url": "https://www.yelp.com/biz/whaleys-washington?adjust_creative=aJsm0qZM7l1f7g6leJfetg&utm_campaign=yelp_api_v3&utm_medium=api_v3_business_search&utm_source=aJsm0qZM7l1f7g6leJfetg", "review_count": 215, "categories": [{"alias": "bars", "title": "Bars"}, {"alias": "seafood", "title": "Seafood"}, {"alias": "venues", "title": "Venues & Event Spaces"}], "rating": 4.0, "coordinates": {"latitude": 38.87346, "longitude": -77.00158}, "transactions": [], "price": "$$", "location": {"address1": "301 Water St SE", "address2": "Ste 115", "address3": "", "city": "Washington, DC", "zip_code": "20003", "country": "US", "state": "DC", "display_address": ["301 Water St SE", "Ste 115", "Washington, DC 20003"]}, "phone": "+12024848800", "display_phone": "(202) 484-8800", "distance": 4923.049969746696}, {"id": "tKyyJiJLg8fiQ2Lt5bklCQ", "alias": "pennsylvania-6-dc-washington", "name": "Pennsylvania 6 DC", "image_url": "https://s3-media3.fl.yelpcdn.com/bphoto/Dqte0hlvtr1a0Lw5MIKatg/o.jpg", "is_closed": false, "url": "https://www.yelp.com/biz/pennsylvania-6-dc-washington?adjust_creative=aJsm0qZM7l1f7g6leJfetg&utm_campaign=yelp_api_v3&utm_medium=api_v3_business_search&utm_source=aJsm0qZM7l1f7g6leJfetg", "review_count": 314, "categories": [{"alias": "tradamerican", "title": "American (Traditional)"}, {"alias": "seafood", "title": "Seafood"}, {"alias": "cocktailbars", "title": "Cocktail Bars"}], "rating": 4.0, "coordinates": {"latitude": 38.9012124997115, "longitude": -77.0308658191557}, "transactions": [], "price": "$$$", "location": {"address1": "1350 Eye St NW", "address2": null, "address3": "", "city": "Washington, DC", "zip_code": "20005", "country": "US", "state": "DC", "display_address": ["1350 Eye St NW", "Washington, DC 20005"]}, "phone": "+12027961600", "display_phone": "(202) 796-1600", "distance": 1121.1338008538016}, {"id": "VlYBHm55Cyk8ReAAmKXMkA", "alias": "honeysuckle-washington-3", "name": "Honeysuckle", "image_url": "https://s3-media2.fl.yelpcdn.com/bphoto/yc6ighDCdCDwYyU02PD-Ng/o.jpg", "is_closed": false, "url": "https://www.yelp.com/biz/honeysuckle-washington-3?adjust_creative=aJsm0qZM7l1f7g6leJfetg&utm_campaign=yelp_api_v3&utm_medium=api_v3_business_search&utm_source=aJsm0qZM7l1f7g6leJfetg", "review_count": 138, "categories": [{"alias": "newamerican", "title": "American (New)"}], "rating": 4.5, "coordinates": {"latitude": 38.90548, "longitude": -77.04452}, "transactions": [], "price": "$$$", "location": {"address1": "1990 M St NW", "address2": "", "address3": null, "city": "Washington, DC", "zip_code": "20036", "country": "US", "state": "DC", "display_address": ["1990 M St NW", "Washington, DC 20036"]}, "phone": "+12026591990", "display_phone": "(202) 659-1990", "distance": 1370.2094433589798}, {"id": "IMUlQlXTqgsWTUZLifuRZQ", "alias": "clydes-of-georgetown-washington-3", "name": "Clyde's of Georgetown", "image_url": "https://s3-media1.fl.yelpcdn.com/bphoto/nAcmAyy06eMUIJHA4HK0ow/o.jpg", "is_closed": false, "url": "https://www.yelp.com/biz/clydes-of-georgetown-washington-3?adjust_creative=aJsm0qZM7l1f7g6leJfetg&utm_campaign=yelp_api_v3&utm_medium=api_v3_business_search&utm_source=aJsm0qZM7l1f7g6leJfetg", "review_count": 887, "categories": [{"alias": "tradamerican", "title": "American (Traditional)"}, {"alias": "bars", "title": "Bars"}], "rating": 4.0, "coordinates": {"latitude": 38.9049110412598, "longitude": -77.0640258789062}, "transactions": [], "price": "$$", "location": {"address1": "3236 M St NW", "address2": "", "address3": "", "city": "Washington, DC", "zip_code": "20007", "country": "US", "state": "DC", "display_address": ["3236 M St NW", "Washington, DC 20007"]}, "phone": "+12023339180", "display_phone": "(202) 333-9180", "distance": 2976.1056180063392}, {"id": "kVCCVqIikApTuD_SGHBwHg", "alias": "unconventional-diner-washington-3", "name": "Unconventional Diner", "image_url": "https://s3-media3.fl.yelpcdn.com/bphoto/7bq_NGGzgTXAThK_1vINbA/o.jpg", "is_closed": false, "url": "https://www.yelp.com/biz/unconventional-diner-washington-3?adjust_creative=aJsm0qZM7l1f7g6leJfetg&utm_campaign=yelp_api_v3&utm_medium=api_v3_business_search&utm_source=aJsm0qZM7l1f7g6leJfetg", "review_count": 128, "categories": [{"alias": "diners", "title": "Diners"}, {"alias": "comfortfood", "title": "Comfort Food"}], "rating": 4.5, "coordinates": {"latitude": 38.906139, "longitude": -77.0238}, "transactions": [], "price": "$$", "location": {"address1": "1207 9th St NW", "address2": "", "address3": null, "city": "Washington, DC", "zip_code": "20001", "country": "US", "state": "DC", "display_address": ["1207 9th St NW", "Washington, DC 20001"]}, "phone": "+12028470122", "display_phone": "(202) 847-0122", "distance": 823.8629574740099}, {"id": "GBkFa8TJwkaUJsJXXGkTTg", "alias": "zaytinya-washington", "name": "Zaytinya", "image_url": "https://s3-media2.fl.yelpcdn.com/bphoto/qf8Mc1iHho1dN-CJFItEwQ/o.jpg", "is_closed": false, "url": "https://www.yelp.com/biz/zaytinya-washington?adjust_creative=aJsm0qZM7l1f7g6leJfetg&utm_campaign=yelp_api_v3&utm_medium=api_v3_business_search&utm_source=aJsm0qZM7l1f7g6leJfetg", "review_count": 3897, "categories": [{"alias": "greek", "title": "Greek"}, {"alias": "turkish", "title": "Turkish"}, {"alias": "lebanese", "title": "Lebanese"}], "rating": 4.0, "coordinates": {"latitude": 38.89904, "longitude": -77.02349}, "transactions": ["restaurant_reservation"], "price": "$$$", "location": {"address1": "701 9th St NW", "address2": "", "address3": "", "city": "Washington, DC", "zip_code": "20001", "country": "US", "state": "DC", "display_address": ["701 9th St NW", "Washington, DC 20001"]}, "phone": "+12026380800", "display_phone": "(202) 638-0800", "distance": 1481.365422299578}, {"id": "U0tfep9yNBASTe2zAG6cPw", "alias": "filomena-ristorante-washington", "name": "Filomena Ristorante", "image_url": "https://s3-media1.fl.yelpcdn.com/bphoto/bO2xiEE4p2x_6fVKhwSV-w/o.jpg", "is_closed": false, "url": "https://www.yelp.com/biz/filomena-ristorante-washington?adjust_creative=aJsm0qZM7l1f7g6leJfetg&utm_campaign=yelp_api_v3&utm_medium=api_v3_business_search&utm_source=aJsm0qZM7l1f7g6leJfetg", "review_count": 1952, "categories": [{"alias": "italian", "title": "Italian"}, {"alias": "wine_bars", "title": "Wine Bars"}], "rating": 4.0, "coordinates": {"latitude": 38.90443, "longitude": -77.062546}, "transactions": [], "price": "$$$", "location": {"address1": "1063 Wisconsin Ave NW", "address2": "", "address3": "", "city": "Washington, DC", "zip_code": "20007", "country": "US", "state": "DC", "display_address": ["1063 Wisconsin Ave NW", "Washington, DC 20007"]}, "phone": "+12023388800", "display_phone": "(202) 338-8800", "distance": 2864.30920269697}, {"id": "QSzNSQqEbxtjBHEmNx7I2g", "alias": "umaya-izakaya-washington-7", "name": "Umaya Izakaya", "image_url": "https://s3-media1.fl.yelpcdn.com/bphoto/5FTSW5eE7GhpYrAdbdJLKw/o.jpg", "is_closed": false, "url": "https://www.yelp.com/biz/umaya-izakaya-washington-7?adjust_creative=aJsm0qZM7l1f7g6leJfetg&utm_campaign=yelp_api_v3&utm_medium=api_v3_business_search&utm_source=aJsm0qZM7l1f7g6leJfetg", "review_count": 293, "categories": [{"alias": "ramen", "title": "Ramen"}, {"alias": "izakaya", "title": "Izakaya"}, {"alias": "sushi", "title": "Sushi Bars"}], "rating": 4.0, "coordinates": {"latitude": 38.8987846374512, "longitude": -77.0256729125977}, "transactions": ["pickup", "restaurant_reservation", "delivery"], "price": "$$", "location": {"address1": "733 10th St NW", "address2": null, "address3": "", "city": "Washington, DC", "zip_code": "20001", "country": "US", "state": "DC", "display_address": ["733 10th St NW", "Washington, DC 20001"]}, "phone": "+12022903443", "display_phone": "(202) 290-3443", "distance": 1461.9901954796676}, {"id": "gpRqZNVKt_7tPunHbrSCxg", "alias": "b-penn-quarter-washington-2", "name": "b DC Penn Quarter", "image_url": "https://s3-media2.fl.yelpcdn.com/bphoto/phGyyZpW8zfsGpejmPlwKw/o.jpg", "is_closed": false, "url": "https://www.yelp.com/biz/b-penn-quarter-washington-2?adjust_creative=aJsm0qZM7l1f7g6leJfetg&utm_campaign=yelp_api_v3&utm_medium=api_v3_business_search&utm_source=aJsm0qZM7l1f7g6leJfetg", "review_count": 1047, "categories": [{"alias": "burgers", "title": "Burgers"}, {"alias": "newamerican", "title": "American (New)"}, {"alias": "beerbar", "title": "Beer Bar"}], "rating": 4.0, "coordinates": {"latitude": 38.8942947129763, "longitude": -77.0233643521111}, "transactions": ["pickup", "delivery"], "price": "$$", "location": {"address1": "801 Pennsylvania Ave NW", "address2": null, "address3": "", "city": "Washington, DC", "zip_code": "20004", "country": "US", "state": "DC", "display_address": ["801 Pennsylvania Ave NW", "Washington, DC 20004"]}, "phone": "+12028088720", "display_phone": "(202) 808-8720", "distance": 1992.269556236805}, {"id": "iqV-9rIC-azTw9OQQc8Vhw", "alias": "district-taco-washington-6", "name": "District Taco", "image_url": "https://s3-media3.fl.yelpcdn.com/bphoto/ajhXnXsTmp4ZI0472P6uyg/o.jpg", "is_closed": false, "url": "https://www.yelp.com/biz/district-taco-washington-6?adjust_creative=aJsm0qZM7l1f7g6leJfetg&utm_campaign=yelp_api_v3&utm_medium=api_v3_business_search&utm_source=aJsm0qZM7l1f7g6leJfetg", "review_count": 1282, "categories": [{"alias": "mexican", "title": "Mexican"}], "rating": 4.0, "coordinates": {"latitude": 38.8975982666016, "longitude": -77.030158996582}, "transactions": [], "price": "$", "location": {"address1": "1309 F St NW", "address2": "", "address3": "", "city": "Washington, DC", "zip_code": "20004", "country": "US", "state": "DC", "display_address": ["1309 F St NW", "Washington, DC 20004"]}, "phone": "+12023477359", "display_phone": "(202) 347-7359", "distance": 1523.5626645153814}, {"id": "j9qYRR8HCXm_GEnetijOGA", "alias": "le-diplomate-washington", "name": "Le Diplomate", "image_url": "https://s3-media2.fl.yelpcdn.com/bphoto/2EljPz-cdiTQa6wTsIbI7Q/o.jpg", "is_closed": false, "url": "https://www.yelp.com/biz/le-diplomate-washington?adjust_creative=aJsm0qZM7l1f7g6leJfetg&utm_campaign=yelp_api_v3&utm_medium=api_v3_business_search&utm_source=aJsm0qZM7l1f7g6leJfetg", "review_count": 2381, "categories": [{"alias": "brasseries", "title": "Brasseries"}, {"alias": "french", "title": "French"}, {"alias": "cafes", "title": "Cafes"}], "rating": 4.0, "coordinates": {"latitude": 38.911359, "longitude": -77.031575}, "transactions": [], "price": "$$$", "location": {"address1": "1601 14th St NW", "address2": "", "address3": "", "city": "Washington, DC", "zip_code": "20009", "country": "US", "state": "DC", "display_address": ["1601 14th St NW", "Washington, DC 20009"]}, "phone": "+12023323333", "display_phone": "(202) 332-3333", "distance": 88.94181251452841}, {"id": "mC5THK334Eo0Awv4JE-lnA", "alias": "teds-bulletin-washington", "name": "Ted's Bulletin", "image_url": "https://s3-media4.fl.yelpcdn.com/bphoto/LjNwRv6GvfS87cQ8a1Tazw/o.jpg", "is_closed": false, "url": "https://www.yelp.com/biz/teds-bulletin-washington?adjust_creative=aJsm0qZM7l1f7g6leJfetg&utm_campaign=yelp_api_v3&utm_medium=api_v3_business_search&utm_source=aJsm0qZM7l1f7g6leJfetg", "review_count": 1737, "categories": [{"alias": "breakfast_brunch", "title": "Breakfast & Brunch"}, {"alias": "tradamerican", "title": "American (Traditional)"}, {"alias": "sandwiches", "title": "Sandwiches"}], "rating": 4.0, "coordinates": {"latitude": 38.882453918457, "longitude": -76.9953384399414}, "transactions": ["pickup"], "price": "$$", "location": {"address1": "505 8th St SE", "address2": "", "address3": "", "city": "Washington, DC", "zip_code": "20003", "country": "US", "state": "DC", "display_address": ["505 8th St SE", "Washington, DC 20003"]}, "phone": "+12025448337", "display_phone": "(202) 544-8337", "distance": 4427.962598177808}, {"id": "ZZpshW3sxlMbQrn1bLhM1g", "alias": "stable-washington", "name": "Stable", "image_url": "https://s3-media2.fl.yelpcdn.com/bphoto/5YX2w8GefYihy_Uv4ulwRw/o.jpg", "is_closed": false, "url": "https://www.yelp.com/biz/stable-washington?adjust_creative=aJsm0qZM7l1f7g6leJfetg&utm_campaign=yelp_api_v3&utm_medium=api_v3_business_search&utm_source=aJsm0qZM7l1f7g6leJfetg", "review_count": 75, "categories": [{"alias": "modern_european", "title": "Modern European"}, {"alias": "fondue", "title": "Fondue"}, {"alias": "cocktailbars", "title": "Cocktail Bars"}], "rating": 4.5, "coordinates": {"latitude": 38.90039, "longitude": -76.98735}, "transactions": ["restaurant_reservation"], "price": "$$", "location": {"address1": "1324 H St NE", "address2": "", "address3": null, "city": "Washington, DC", "zip_code": "20002", "country": "US", "state": "DC", "display_address": ["1324 H St NE", "Washington, DC 20002"]}, "phone": "+12027334604", "display_phone": "(202) 733-4604", "distance": 3938.8980909759457}, {"id": "RQN0Dj9tKLbzZG8ByY3N2A", "alias": "barrel-washington", "name": "Barrel", "image_url": "https://s3-media1.fl.yelpcdn.com/bphoto/BIs2JOcOq89wjzltuSvD4g/o.jpg", "is_closed": false, "url": "https://www.yelp.com/biz/barrel-washington?adjust_creative=aJsm0qZM7l1f7g6leJfetg&utm_campaign=yelp_api_v3&utm_medium=api_v3_business_search&utm_source=aJsm0qZM7l1f7g6leJfetg", "review_count": 582, "categories": [{"alias": "newamerican", "title": "American (New)"}, {"alias": "cocktailbars", "title": "Cocktail Bars"}, {"alias": "breakfast_brunch", "title": "Breakfast & Brunch"}], "rating": 4.5, "coordinates": {"latitude": 38.8851357980807, "longitude": -76.9978595803566}, "transactions": [], "price": "$$", "location": {"address1": "613 Pennsylvania Ave SE", "address2": "", "address3": "", "city": "Washington, DC", "zip_code": "20003", "country": "US", "state": "DC", "display_address": ["613 Pennsylvania Ave SE", "Washington, DC 20003"]}, "phone": "+12025433622", "display_phone": "(202) 543-3622", "distance": 4062.897485583164}, {"id": "J6FaFYVccgU_Kd6TpdyJ5g", "alias": "dukes-counter-washington", "name": "Duke's Counter", "image_url": "https://s3-media3.fl.yelpcdn.com/bphoto/0cMyP-N97kjHqiOwQVCe9Q/o.jpg", "is_closed": false, "url": "https://www.yelp.com/biz/dukes-counter-washington?adjust_creative=aJsm0qZM7l1f7g6leJfetg&utm_campaign=yelp_api_v3&utm_medium=api_v3_business_search&utm_source=aJsm0qZM7l1f7g6leJfetg", "review_count": 251, "categories": [{"alias": "burgers", "title": "Burgers"}, {"alias": "pubs", "title": "Pubs"}, {"alias": "sandwiches", "title": "Sandwiches"}], "rating": 4.5, "coordinates": {"latitude": 38.9300499047127, "longitude": -77.0553723516453}, "transactions": ["pickup", "delivery"], "price": "$$", "location": {"address1": "3000 Connecticut Ave NW", "address2": "", "address3": null, "city": "Washington, DC", "zip_code": "20008", "country": "US", "state": "DC", "display_address": ["3000 Connecticut Ave NW", "Washington, DC 20008"]}, "phone": "+12027334808", "display_phone": "(202) 733-4808", "distance": 2987.959591473745}, {"id": "ZVuno8nH-XdNxfKcIPJCBA", "alias": "momofuku-ccdc-washington", "name": "Momofuku CCDC", "image_url": "https://s3-media3.fl.yelpcdn.com/bphoto/Un8jeQoRnIWPoGbGLkcoAA/o.jpg", "is_closed": false, "url": "https://www.yelp.com/biz/momofuku-ccdc-washington?adjust_creative=aJsm0qZM7l1f7g6leJfetg&utm_campaign=yelp_api_v3&utm_medium=api_v3_business_search&utm_source=aJsm0qZM7l1f7g6leJfetg", "review_count": 1234, "categories": [{"alias": "newamerican", "title": "American (New)"}, {"alias": "bars", "title": "Bars"}], "rating": 3.5, "coordinates": {"latitude": 38.900645289298, "longitude": -77.0269804269836}, "transactions": [], "price": "$$", "location": {"address1": "1090 I St NW", "address2": "", "address3": "", "city": "Washington, DC", "zip_code": "20001", "country": "US", "state": "DC", "display_address": ["1090 I St NW", "Washington, DC 20001"]}, "phone": "+12026021832", "display_phone": "(202) 602-1832", "distance": 1225.6388652144233}, {"id": "Z0v0NOziKoF6g_NzO68Z6g", "alias": "reren-washington", "name": "Reren", "image_url": "https://s3-media1.fl.yelpcdn.com/bphoto/mMeWOLbw6DROLDJTE-5AqA/o.jpg", "is_closed": false, "url": "https://www.yelp.com/biz/reren-washington?adjust_creative=aJsm0qZM7l1f7g6leJfetg&utm_campaign=yelp_api_v3&utm_medium=api_v3_business_search&utm_source=aJsm0qZM7l1f7g6leJfetg", "review_count": 996, "categories": [{"alias": "ramen", "title": "Ramen"}, {"alias": "asianfusion", "title": "Asian Fusion"}, {"alias": "chinese", "title": "Chinese"}], "rating": 4.0, "coordinates": {"latitude": 38.900318145752, "longitude": -77.0215911865234}, "transactions": ["pickup", "restaurant_reservation", "delivery"], "price": "$$", "location": {"address1": "817 7th St NW", "address2": null, "address3": "", "city": "Washington, DC", "zip_code": "20001", "country": "US", "state": "DC", "display_address": ["817 7th St NW", "Washington, DC 20001"]}, "phone": "+12022903677", "display_phone": "(202) 290-3677", "distance": 1449.997057051011}, {"id": "6LTWJfePQZEUniwrjAFnGg", "alias": "la-puerta-verde-washington", "name": "La Puerta Verde", "image_url": "https://s3-media3.fl.yelpcdn.com/bphoto/NQ2i59YSN5VYM-Jym8DHMQ/o.jpg", "is_closed": false, "url": "https://www.yelp.com/biz/la-puerta-verde-washington?adjust_creative=aJsm0qZM7l1f7g6leJfetg&utm_campaign=yelp_api_v3&utm_medium=api_v3_business_search&utm_source=aJsm0qZM7l1f7g6leJfetg", "review_count": 112, "categories": [{"alias": "mexican", "title": "Mexican"}], "rating": 4.0, "coordinates": {"latitude": 38.9146193093904, "longitude": -76.9846228088244}, "transactions": [], "price": "$$", "location": {"address1": "2001 Fenwick St NE", "address2": "", "address3": null, "city": "Washington, DC", "zip_code": "20002", "country": "US", "state": "DC", "display_address": ["2001 Fenwick St NE", "Washington, DC 20002"]}, "phone": "+12022901875", "display_phone": "(202) 290-1875", "distance": 3999.9418538393656}, {"id": "tNsnM0fLSbFfgbkdwrCjqw", "alias": "steel-plate-washington-2", "name": "Steel Plate", "image_url": "https://s3-media4.fl.yelpcdn.com/bphoto/JRVmsRle9Si9O-T4qp6EWg/o.jpg", "is_closed": false, "url": "https://www.yelp.com/biz/steel-plate-washington-2?adjust_creative=aJsm0qZM7l1f7g6leJfetg&utm_campaign=yelp_api_v3&utm_medium=api_v3_business_search&utm_source=aJsm0qZM7l1f7g6leJfetg", "review_count": 127, "categories": [{"alias": "cocktailbars", "title": "Cocktail Bars"}, {"alias": "comfortfood", "title": "Comfort Food"}], "rating": 4.0, "coordinates": {"latitude": 38.933239, "longitude": -76.990761}, "transactions": [], "price": "$$", "location": {"address1": "3523 12th St NE", "address2": "", "address3": "", "city": "Washington, DC", "zip_code": "20017", "country": "US", "state": "DC", "display_address": ["3523 12th St NE", "Washington, DC 20017"]}, "phone": "+12022902310", "display_phone": "(202) 290-2310", "distance": 4225.399311463735}, {"id": "pyweoOYT-ChxU6oqOfe9-g", "alias": "homestead-washington", "name": "Homestead", "image_url": "https://s3-media1.fl.yelpcdn.com/bphoto/LzfdPTYnXdaoHijMniSWdQ/o.jpg", "is_closed": false, "url": "https://www.yelp.com/biz/homestead-washington?adjust_creative=aJsm0qZM7l1f7g6leJfetg&utm_campaign=yelp_api_v3&utm_medium=api_v3_business_search&utm_source=aJsm0qZM7l1f7g6leJfetg", "review_count": 171, "categories": [{"alias": "cocktailbars", "title": "Cocktail Bars"}, {"alias": "cideries", "title": "Cideries"}, {"alias": "tradamerican", "title": "American (Traditional)"}], "rating": 4.0, "coordinates": {"latitude": 38.93915, "longitude": -77.02443}, "transactions": ["restaurant_reservation"], "price": "$$", "location": {"address1": "3911 Georgia Ave NW", "address2": "", "address3": null, "city": "Washington, DC", "zip_code": "20011", "country": "US", "state": "DC", "display_address": ["3911 Georgia Ave NW", "Washington, DC 20011"]}, "phone": "+12026272371", "display_phone": "(202) 627-2371", "distance": 3143.898099316556}, {"id": "wO-7cBBOYUdiLflpuRsu9A", "alias": "the-bird-washington", "name": "The Bird", "image_url": "https://s3-media2.fl.yelpcdn.com/bphoto/YqwXJTfP9hJ3E2mocW4C2g/o.jpg", "is_closed": false, "url": "https://www.yelp.com/biz/the-bird-washington?adjust_creative=aJsm0qZM7l1f7g6leJfetg&utm_campaign=yelp_api_v3&utm_medium=api_v3_business_search&utm_source=aJsm0qZM7l1f7g6leJfetg", "review_count": 400, "categories": [{"alias": "newamerican", "title": "American (New)"}, {"alias": "breakfast_brunch", "title": "Breakfast & Brunch"}], "rating": 4.0, "coordinates": {"latitude": 38.9084205627441, "longitude": -77.0266876220703}, "transactions": ["pickup"], "price": "$$", "location": {"address1": "1337 11th St NW", "address2": "", "address3": null, "city": "Washington, DC", "zip_code": "20001", "country": "US", "state": "DC", "display_address": ["1337 11th St NW", "Washington, DC 20001"]}, "phone": "+12025183609", "display_phone": "(202) 518-3609", "distance": 468.16703269774115}, {"id": "6Qhmt1jo7BMcFcp41fPFVg", "alias": "the-hamilton-washington", "name": "The Hamilton", "image_url": "https://s3-media4.fl.yelpcdn.com/bphoto/ipDSjPuK17lg5W02aqLkiw/o.jpg", "is_closed": false, "url": "https://www.yelp.com/biz/the-hamilton-washington?adjust_creative=aJsm0qZM7l1f7g6leJfetg&utm_campaign=yelp_api_v3&utm_medium=api_v3_business_search&utm_source=aJsm0qZM7l1f7g6leJfetg", "review_count": 1876, "categories": [{"alias": "seafood", "title": "Seafood"}, {"alias": "newamerican", "title": "American (New)"}, {"alias": "musicvenues", "title": "Music Venues"}], "rating": 3.5, "coordinates": {"latitude": 38.8974544016632, "longitude": -77.0320804809509}, "transactions": [], "price": "$$", "location": {"address1": "600 14th St NW", "address2": "", "address3": "", "city": "Washington, DC", "zip_code": "20005", "country": "US", "state": "DC", "display_address": ["600 14th St NW", "Washington, DC 20005"]}, "phone": "+12027871000", "display_phone": "(202) 787-1000", "distance": 1543.8863560302686}, {"id": "32w5iRuwgv14ALBjTNSU1Q", "alias": "proper-21-washington", "name": "Proper 21", "image_url": "https://s3-media2.fl.yelpcdn.com/bphoto/d08xVmP2C5oF_rK7dsqlsQ/o.jpg", "is_closed": false, "url": "https://www.yelp.com/biz/proper-21-washington?adjust_creative=aJsm0qZM7l1f7g6leJfetg&utm_campaign=yelp_api_v3&utm_medium=api_v3_business_search&utm_source=aJsm0qZM7l1f7g6leJfetg", "review_count": 243, "categories": [{"alias": "bars", "title": "Bars"}, {"alias": "newamerican", "title": "American (New)"}], "rating": 3.5, "coordinates": {"latitude": 38.8976492, "longitude": -77.0306172}, "transactions": ["delivery", "pickup"], "price": "$$", "location": {"address1": "1319 F St NW", "address2": null, "address3": null, "city": "Washington, DC", "zip_code": "20004", "country": "US", "state": "DC", "display_address": ["1319 F St NW", "Washington, DC 20004"]}, "phone": "+12028473674", "display_phone": "(202) 847-3674", "distance": 1517.1846338558842}, {"id": "LofSIdn9SeuHs09WU1IdGw", "alias": "daikaya-ramen-shop-washington-2", "name": "Daikaya Ramen Shop", "image_url": "https://s3-media3.fl.yelpcdn.com/bphoto/xn4SJkSDEIQuaUWZ9gCgWw/o.jpg", "is_closed": false, "url": "https://www.yelp.com/biz/daikaya-ramen-shop-washington-2?adjust_creative=aJsm0qZM7l1f7g6leJfetg&utm_campaign=yelp_api_v3&utm_medium=api_v3_business_search&utm_source=aJsm0qZM7l1f7g6leJfetg", "review_count": 2361, "categories": [{"alias": "ramen", "title": "Ramen"}], "rating": 4.0, "coordinates": {"latitude": 38.8986, "longitude": -77.0195899}, "transactions": [], "price": "$$", "location": {"address1": "705 6th St NW", "address2": "Fl 1", "address3": null, "city": "Washington, DC", "zip_code": "20001", "country": "US", "state": "DC", "display_address": ["705 6th St NW", "Fl 1", "Washington, DC 20001"]}, "phone": "+12025891600", "display_phone": "(202) 589-1600", "distance": 1704.5909854841868}, {"id": "2M2sW2_rKm3kuzppic5zIg", "alias": "lavagna-washington", "name": "Lavagna", "image_url": "https://s3-media2.fl.yelpcdn.com/bphoto/tvYy0PZzYC-0lKaPYiKfHA/o.jpg", "is_closed": false, "url": "https://www.yelp.com/biz/lavagna-washington?adjust_creative=aJsm0qZM7l1f7g6leJfetg&utm_campaign=yelp_api_v3&utm_medium=api_v3_business_search&utm_source=aJsm0qZM7l1f7g6leJfetg", "review_count": 550, "categories": [{"alias": "italian", "title": "Italian"}], "rating": 4.0, "coordinates": {"latitude": 38.8816113, "longitude": -76.9951403}, "transactions": ["restaurant_reservation"], "price": "$$", "location": {"address1": "539 8th St SE", "address2": "", "address3": "", "city": "Washington, DC", "zip_code": "20003", "country": "US", "state": "DC", "display_address": ["539 8th St SE", "Washington, DC 20003"]}, "phone": "+12025465006", "display_phone": "(202) 546-5006", "distance": 4509.043965531173}, {"id": "cQsFnBBrmn04yCgRNc2cfw", "alias": "due-south-washington-2", "name": "Due South", "image_url": "https://s3-media4.fl.yelpcdn.com/bphoto/NfhIN3JVYyAltKUFTTjO5w/o.jpg", "is_closed": false, "url": "https://www.yelp.com/biz/due-south-washington-2?adjust_creative=aJsm0qZM7l1f7g6leJfetg&utm_campaign=yelp_api_v3&utm_medium=api_v3_business_search&utm_source=aJsm0qZM7l1f7g6leJfetg", "review_count": 344, "categories": [{"alias": "southern", "title": "Southern"}, {"alias": "bbq", "title": "Barbeque"}], "rating": 3.5, "coordinates": {"latitude": 38.8736093665097, "longitude": -77.001667006427}, "transactions": [], "price": "$$", "location": {"address1": "301 Water St SE", "address2": "", "address3": "", "city": "Washington, DC", "zip_code": "20003", "country": "US", "state": "DC", "display_address": ["301 Water St SE", "Washington, DC 20003"]}, "phone": "+12024794616", "display_phone": "(202) 479-4616", "distance": 4883.223251635301}]