[{"id": "VA8aPObRynlwR1TGzbzraQ", "alias": "founding-farmers-dc-washington-4", "name": "Founding Farmers - DC", "image_url": "https://s3-media2.fl.yelpcdn.com/bphoto/AWpidG8KMEEIRmqiKEnZHA/o.jpg", "is_closed": false, "url": "https://www.yelp.com/biz/founding-farmers-dc-washington-4?adjust_creative=aJsm0qZM7l1f7g6leJfetg&utm_campaign=yelp_api_v3&utm_medium=api_v3_business_search&utm_source=aJsm0qZM7l1f7g6leJfetg", "review_count": 10596, "categories": [{"alias": "tradamerican", "title": "American (Traditional)"}, {"alias": "coffee", "title": "Coffee & Tea"}, {"alias": "breakfast_brunch", "title": "Breakfast & Brunch"}], "rating": 4.0, "coordinates": {"latitude": 38.900313, "longitude": -77.044533}, "transactions": ["restaurant_reservation"], "price": "$$", "location": {"address1": "1924 Pennsylvania Ave NW", "address2": "", "address3": "", "city": "Washington, DC", "zip_code": "20006", "country": "US", "state": "DC", "display_address": ["1924 Pennsylvania Ave NW", "Washington, DC 20006"]}, "phone": "+12028228783", "display_phone": "(202) 822-8783", "distance": 1713.489882921938}, {"id": "iyBbcXtQSBfiwFQZwVBNaQ", "alias": "old-ebbitt-grill-washington", "name": "Old Ebbitt Grill", "image_url": "https://s3-media2.fl.yelpcdn.com/bphoto/KBCezpuAIUVaMH3wGcMCKQ/o.jpg", "is_closed": false, "url": "https://www.yelp.com/biz/old-ebbitt-grill-washington?adjust_creative=aJsm0qZM7l1f7g6leJfetg&utm_campaign=yelp_api_v3&utm_medium=api_v3_business_search&utm_source=aJsm0qZM7l1f7g6leJfetg", "review_count": 6394, "categories": [{"alias": "bars", "title": "Bars"}, {"alias": "tradamerican", "title": "American (Traditional)"}, {"alias": "breakfast_brunch", "title": "Breakfast & Brunch"}], "rating": 4.0, "coordinates": {"latitude": 38.898005, "longitude": -77.033362}, "transactions": [], "price": "$$", "location": {"address1": "675 15th St NW", "address2": "", "address3": "", "city": "Washington, DC", "zip_code": "20005", "country": "US", "state": "DC", "display_address": ["675 15th St NW", "Washington, DC 20005"]}, "phone": "+12023474800", "display_phone": "(202) 347-4800", "distance": 1496.279982474307}, {"id": "B-NQjTjaIPURVtpUQe0-3w", "alias": "the-pig-washington-2", "name": "The Pig", "image_url": "https://s3-media3.fl.yelpcdn.com/bphoto/tfq_cx1hk2aebJZfGSu2HQ/o.jpg", "is_closed": false, "url": "https://www.yelp.com/biz/the-pig-washington-2?adjust_creative=aJsm0qZM7l1f7g6leJfetg&utm_campaign=yelp_api_v3&utm_medium=api_v3_business_search&utm_source=aJsm0qZM7l1f7g6leJfetg", "review_count": 1387, "categories": [{"alias": "tradamerican", "title": "American (Traditional)"}, {"alias": "cocktailbars", "title": "Cocktail Bars"}], "rating": 4.0, "coordinates": {"latitude": 38.90793, "longitude": -77.03229}, "transactions": ["restaurant_reservation"], "price": "$$", "location": {"address1": "1320 14th St NW", "address2": "", "address3": "", "city": "Washington, DC", "zip_code": "20005", "country": "US", "state": "DC", "display_address": ["1320 14th St NW", "Washington, DC 20005"]}, "phone": "+12022902821", "display_phone": "(202) 290-2821", "distance": 400.9432930439649}, {"id": "HVDw0WV-tLIhF8mGYNq1vg", "alias": "tiki-taco-washington", "name": "Tiki Taco", "image_url": "https://s3-media2.fl.yelpcdn.com/bphoto/zyWPCJ5p8dZonZFSJ7YJ4w/o.jpg", "is_closed": false, "url": "https://www.yelp.com/biz/tiki-taco-washington?adjust_creative=aJsm0qZM7l1f7g6leJfetg&utm_campaign=yelp_api_v3&utm_medium=api_v3_business_search&utm_source=aJsm0qZM7l1f7g6leJfetg", "review_count": 31, "categories": [{"alias": "tacos", "title": "Tacos"}, {"alias": "hawaiian", "title": "Hawaiian"}, {"alias": "shavedice", "title": "Shaved Ice"}], "rating": 4.5, "coordinates": {"latitude": 38.90939, "longitude": -77.04541}, "transactions": ["pickup"], "price": "$", "location": {"address1": "2010 P St NW", "address2": "", "address3": null, "city": "Washington, DC", "zip_code": "20036", "country": "US", "state": "DC", "display_address": ["2010 P St NW", "Washington, DC 20036"]}, "phone": "+12029862121", "display_phone": "(202) 986-2121", "distance": 1293.414252479493}, {"id": "vmwPSOZZDAmGELwrjjWYlg", "alias": "1310-kitchen-and-bar-washington", "name": "1310 Kitchen & Bar", "image_url": "https://s3-media2.fl.yelpcdn.com/bphoto/E9JBcFfhd45pKtsHBOl7FA/o.jpg", "is_closed": false, "url": "https://www.yelp.com/biz/1310-kitchen-and-bar-washington?adjust_creative=aJsm0qZM7l1f7g6leJfetg&utm_campaign=yelp_api_v3&utm_medium=api_v3_business_search&utm_source=aJsm0qZM7l1f7g6leJfetg", "review_count": 7, "categories": [{"alias": "breakfast_brunch", "title": "Breakfast & Brunch"}, {"alias": "newamerican", "title": "American (New)"}], "rating": 4.0, "coordinates": {"latitude": 38.90721, "longitude": -77.06356}, "transactions": [], "price": "$$", "location": {"address1": "1310 Wisconsin Ave NW", "address2": null, "address3": "", "city": "Washington, DC", "zip_code": "20007", "country": "US", "state": "DC", "display_address": ["1310 Wisconsin Ave NW", "Washington, DC 20007"]}, "phone": "+12023338232", "display_phone": "(202) 333-8232", "distance": 2882.9929710893093}, {"id": "P5Z3SuQP612ff2Udmz9SbA", "alias": "napoli-pasta-bar-washington-2", "name": "Napoli Pasta Bar", "image_url": "https://s3-media3.fl.yelpcdn.com/bphoto/tBMFbLH89ZyDrsOPT78xRg/o.jpg", "is_closed": false, "url": "https://www.yelp.com/biz/napoli-pasta-bar-washington-2?adjust_creative=aJsm0qZM7l1f7g6leJfetg&utm_campaign=yelp_api_v3&utm_medium=api_v3_business_search&utm_source=aJsm0qZM7l1f7g6leJfetg", "review_count": 22, "categories": [{"alias": "italian", "title": "Italian"}], "rating": 4.5, "coordinates": {"latitude": 38.92573, "longitude": -77.02555}, "transactions": ["delivery", "pickup"], "location": {"address1": "2737 Sherman Ave NW", "address2": "", "address3": null, "city": "Washington, DC", "zip_code": "20001", "country": "US", "state": "DC", "display_address": ["2737 Sherman Ave NW", "Washington, DC 20001"]}, "phone": "+12025888752", "display_phone": "(202) 588-8752", "distance": 1665.6225042772812}, {"id": "sxNUpaApjh_54-l9RcJRDA", "alias": "farmers-fishers-bakers-washington", "name": "Farmers Fishers Bakers", "image_url": "https://s3-media2.fl.yelpcdn.com/bphoto/sYT0ZP0ZRzlvpGYY0SV1Xg/o.jpg", "is_closed": false, "url": "https://www.yelp.com/biz/farmers-fishers-bakers-washington?adjust_creative=aJsm0qZM7l1f7g6leJfetg&utm_campaign=yelp_api_v3&utm_medium=api_v3_business_search&utm_source=aJsm0qZM7l1f7g6leJfetg", "review_count": 2688, "categories": [{"alias": "newamerican", "title": "American (New)"}, {"alias": "breakfast_brunch", "title": "Breakfast & Brunch"}, {"alias": "vegetarian", "title": "Vegetarian"}], "rating": 4.0, "coordinates": {"latitude": 38.9014030543526, "longitude": -77.0599942827455}, "transactions": ["restaurant_reservation"], "price": "$$", "location": {"address1": "3000 K St NW", "address2": "", "address3": "", "city": "Washington, DC", "zip_code": "20007", "country": "US", "state": "DC", "display_address": ["3000 K St NW", "Washington, DC 20007"]}, "phone": "+12022988783", "display_phone": "(202) 298-8783", "distance": 2767.890884344161}, {"id": "zeTqaVpvssznHt_1IxChXQ", "alias": "blue-duck-tavern-washington", "name": "Blue Duck Tavern", "image_url": "https://s3-media2.fl.yelpcdn.com/bphoto/_U3d8g-JyZ3RgkhBvXCVgg/o.jpg", "is_closed": false, "url": "https://www.yelp.com/biz/blue-duck-tavern-washington?adjust_creative=aJsm0qZM7l1f7g6leJfetg&utm_campaign=yelp_api_v3&utm_medium=api_v3_business_search&utm_source=aJsm0qZM7l1f7g6leJfetg", "review_count": 1991, "categories": [{"alias": "newamerican", "title": "American (New)"}, {"alias": "breakfast_brunch", "title": "Breakfast & Brunch"}, {"alias": "cocktailbars", "title": "Cocktail Bars"}], "rating": 4.0, "coordinates": {"latitude": 38.9055917636612, "longitude": -77.0511932944776}, "transactions": [], "price": "$$$", "location": {"address1": "1201 24th St NW", "address2": "", "address3": "", "city": "Washington, DC", "zip_code": "20037", "country": "US", "state": "DC", "display_address": ["1201 24th St NW", "Washington, DC 20037"]}, "phone": "+12024196755", "display_phone": "(202) 419-6755", "distance": 1888.0645039295632}, {"id": "j9qYRR8HCXm_GEnetijOGA", "alias": "le-diplomate-washington", "name": "Le Diplomate", "image_url": "https://s3-media2.fl.yelpcdn.com/bphoto/2EljPz-cdiTQa6wTsIbI7Q/o.jpg", "is_closed": false, "url": "https://www.yelp.com/biz/le-diplomate-washington?adjust_creative=aJsm0qZM7l1f7g6leJfetg&utm_campaign=yelp_api_v3&utm_medium=api_v3_business_search&utm_source=aJsm0qZM7l1f7g6leJfetg", "review_count": 2383, "categories": [{"alias": "brasseries", "title": "Brasseries"}, {"alias": "french", "title": "French"}, {"alias": "cafes", "title": "Cafes"}], "rating": 4.0, "coordinates": {"latitude": 38.911359, "longitude": -77.031575}, "transactions": [], "price": "$$$", "location": {"address1": "1601 14th St NW", "address2": "", "address3": "", "city": "Washington, DC", "zip_code": "20009", "country": "US", "state": "DC", "display_address": ["1601 14th St NW", "Washington, DC 20009"]}, "phone": "+12023323333", "display_phone": "(202) 332-3333", "distance": 88.94181251452841}, {"id": "8kuBHJm8Ncq7FyfT7GIIug", "alias": "the-fainting-goat-washington", "name": "The Fainting Goat", "image_url": "https://s3-media3.fl.yelpcdn.com/bphoto/EG9dz_m4kqmALZVHTJ_wXg/o.jpg", "is_closed": false, "url": "https://www.yelp.com/biz/the-fainting-goat-washington?adjust_creative=aJsm0qZM7l1f7g6leJfetg&utm_campaign=yelp_api_v3&utm_medium=api_v3_business_search&utm_source=aJsm0qZM7l1f7g6leJfetg", "review_count": 533, "categories": [{"alias": "newamerican", "title": "American (New)"}, {"alias": "bars", "title": "Bars"}], "rating": 4.0, "coordinates": {"latitude": 38.9167735, "longitude": -77.0308397}, "transactions": [], "price": "$$", "location": {"address1": "1330 U St NW", "address2": "", "address3": "", "city": "Washington, DC", "zip_code": "20009", "country": "US", "state": "DC", "display_address": ["1330 U St NW", "Washington, DC 20009"]}, "phone": "+12027350344", "display_phone": "(202) 735-0344", "distance": 609.5851601979055}, {"id": "kVCCVqIikApTuD_SGHBwHg", "alias": "unconventional-diner-washington-3", "name": "Unconventional Diner", "image_url": "https://s3-media3.fl.yelpcdn.com/bphoto/7bq_NGGzgTXAThK_1vINbA/o.jpg", "is_closed": false, "url": "https://www.yelp.com/biz/unconventional-diner-washington-3?adjust_creative=aJsm0qZM7l1f7g6leJfetg&utm_campaign=yelp_api_v3&utm_medium=api_v3_business_search&utm_source=aJsm0qZM7l1f7g6leJfetg", "review_count": 131, "categories": [{"alias": "diners", "title": "Diners"}, {"alias": "comfortfood", "title": "Comfort Food"}], "rating": 4.5, "coordinates": {"latitude": 38.906139, "longitude": -77.0238}, "transactions": [], "price": "$$", "location": {"address1": "1207 9th St NW", "address2": "", "address3": null, "city": "Washington, DC", "zip_code": "20001", "country": "US", "state": "DC", "display_address": ["1207 9th St NW", "Washington, DC 20001"]}, "phone": "+12028470122", "display_phone": "(202) 847-0122", "distance": 823.8629574740099}, {"id": "jT7v_FvzIWKkg6_UXw1Ppw", "alias": "sababa-washington-2", "name": "Sababa", "image_url": "https://s3-media2.fl.yelpcdn.com/bphoto/XX20pz3Jx94wHX0PliArCg/o.jpg", "is_closed": false, "url": "https://www.yelp.com/biz/sababa-washington-2?adjust_creative=aJsm0qZM7l1f7g6leJfetg&utm_campaign=yelp_api_v3&utm_medium=api_v3_business_search&utm_source=aJsm0qZM7l1f7g6leJfetg", "review_count": 21, "categories": [{"alias": "mideastern", "title": "Middle Eastern"}], "rating": 4.0, "coordinates": {"latitude": 38.93388, "longitude": -77.05707}, "transactions": [], "location": {"address1": "3311 Connecticut Ave NW", "address2": "", "address3": null, "city": "Washington, DC", "zip_code": "20008", "country": "US", "state": "DC", "display_address": ["3311 Connecticut Ave NW", "Washington, DC 20008"]}, "phone": "+12022446750", "display_phone": "(202) 244-6750", "distance": 3396.398089697476}, {"id": "urnTL375jGSNJM2xZFyO_A", "alias": "gradys-washington", "name": "Grady's", "image_url": "https://s3-media2.fl.yelpcdn.com/bphoto/H6nmloR51ZXIcGw2WTKZCg/o.jpg", "is_closed": false, "url": "https://www.yelp.com/biz/gradys-washington?adjust_creative=aJsm0qZM7l1f7g6leJfetg&utm_campaign=yelp_api_v3&utm_medium=api_v3_business_search&utm_source=aJsm0qZM7l1f7g6leJfetg", "review_count": 25, "categories": [{"alias": "newamerican", "title": "American (New)"}], "rating": 4.5, "coordinates": {"latitude": 38.91959, "longitude": -77.0323499}, "transactions": ["restaurant_reservation"], "price": "$$", "location": {"address1": "2210 14th St NW", "address2": "", "address3": null, "city": "Washington, DC", "zip_code": "20009", "country": "US", "state": "DC", "display_address": ["2210 14th St NW", "Washington, DC 20009"]}, "phone": "+12027910270", "display_phone": "(202) 791-0270", "distance": 934.1417374195096}, {"id": "wO-7cBBOYUdiLflpuRsu9A", "alias": "the-bird-washington", "name": "The Bird", "image_url": "https://s3-media2.fl.yelpcdn.com/bphoto/YqwXJTfP9hJ3E2mocW4C2g/o.jpg", "is_closed": false, "url": "https://www.yelp.com/biz/the-bird-washington?adjust_creative=aJsm0qZM7l1f7g6leJfetg&utm_campaign=yelp_api_v3&utm_medium=api_v3_business_search&utm_source=aJsm0qZM7l1f7g6leJfetg", "review_count": 401, "categories": [{"alias": "newamerican", "title": "American (New)"}, {"alias": "breakfast_brunch", "title": "Breakfast & Brunch"}], "rating": 4.0, "coordinates": {"latitude": 38.9084205627441, "longitude": -77.0266876220703}, "transactions": ["pickup"], "price": "$$", "location": {"address1": "1337 11th St NW", "address2": "", "address3": null, "city": "Washington, DC", "zip_code": "20001", "country": "US", "state": "DC", "display_address": ["1337 11th St NW", "Washington, DC 20001"]}, "phone": "+12025183609", "display_phone": "(202) 518-3609", "distance": 468.16703269774115}, {"id": "wTz5b1FR8Af06LKjf9eTDQ", "alias": "daikaya-izakaya-washington-8", "name": "Daikaya Izakaya", "image_url": "https://s3-media3.fl.yelpcdn.com/bphoto/Nw-C41E7Fvmfs17ChFyzWw/o.jpg", "is_closed": false, "url": "https://www.yelp.com/biz/daikaya-izakaya-washington-8?adjust_creative=aJsm0qZM7l1f7g6leJfetg&utm_campaign=yelp_api_v3&utm_medium=api_v3_business_search&utm_source=aJsm0qZM7l1f7g6leJfetg", "review_count": 649, "categories": [{"alias": "izakaya", "title": "Izakaya"}], "rating": 4.0, "coordinates": {"latitude": 38.8986, "longitude": -77.0195899}, "transactions": [], "price": "$$", "location": {"address1": "705 6th St NW", "address2": "Fl 2", "address3": "", "city": "Washington, DC", "zip_code": "20001", "country": "US", "state": "DC", "display_address": ["705 6th St NW", "Fl 2", "Washington, DC 20001"]}, "phone": "+12025891600", "display_phone": "(202) 589-1600", "distance": 1704.5909854841868}, {"id": "tKyyJiJLg8fiQ2Lt5bklCQ", "alias": "pennsylvania-6-dc-washington", "name": "Pennsylvania 6 DC", "image_url": "https://s3-media3.fl.yelpcdn.com/bphoto/Dqte0hlvtr1a0Lw5MIKatg/o.jpg", "is_closed": false, "url": "https://www.yelp.com/biz/pennsylvania-6-dc-washington?adjust_creative=aJsm0qZM7l1f7g6leJfetg&utm_campaign=yelp_api_v3&utm_medium=api_v3_business_search&utm_source=aJsm0qZM7l1f7g6leJfetg", "review_count": 317, "categories": [{"alias": "tradamerican", "title": "American (Traditional)"}, {"alias": "seafood", "title": "Seafood"}, {"alias": "cocktailbars", "title": "Cocktail Bars"}], "rating": 4.0, "coordinates": {"latitude": 38.9012124997115, "longitude": -77.0308658191557}, "transactions": [], "price": "$$$", "location": {"address1": "1350 Eye St NW", "address2": null, "address3": "", "city": "Washington, DC", "zip_code": "20005", "country": "US", "state": "DC", "display_address": ["1350 Eye St NW", "Washington, DC 20005"]}, "phone": "+12027961600", "display_phone": "(202) 796-1600", "distance": 1121.1338008538016}, {"id": "y_K6LdyE6unzkE_hMi1mfQ", "alias": "city-tap-house-washington", "name": "City Tap House", "image_url": "https://s3-media1.fl.yelpcdn.com/bphoto/mSgHanQcD9kABSB-YRE4pw/o.jpg", "is_closed": false, "url": "https://www.yelp.com/biz/city-tap-house-washington?adjust_creative=aJsm0qZM7l1f7g6leJfetg&utm_campaign=yelp_api_v3&utm_medium=api_v3_business_search&utm_source=aJsm0qZM7l1f7g6leJfetg", "review_count": 1221, "categories": [{"alias": "bars", "title": "Bars"}, {"alias": "newamerican", "title": "American (New)"}], "rating": 4.0, "coordinates": {"latitude": 38.9011329, "longitude": -77.0236995}, "transactions": [], "price": "$$", "location": {"address1": "901 I St NW", "address2": "", "address3": "", "city": "Washington, DC", "zip_code": "20001", "country": "US", "state": "DC", "display_address": ["901 I St NW", "Washington, DC 20001"]}, "phone": "+12027335333", "display_phone": "(202) 733-5333", "distance": 1279.495670434201}, {"id": "VlYBHm55Cyk8ReAAmKXMkA", "alias": "honeysuckle-washington-3", "name": "Honeysuckle", "image_url": "https://s3-media2.fl.yelpcdn.com/bphoto/yc6ighDCdCDwYyU02PD-Ng/o.jpg", "is_closed": false, "url": "https://www.yelp.com/biz/honeysuckle-washington-3?adjust_creative=aJsm0qZM7l1f7g6leJfetg&utm_campaign=yelp_api_v3&utm_medium=api_v3_business_search&utm_source=aJsm0qZM7l1f7g6leJfetg", "review_count": 138, "categories": [{"alias": "newamerican", "title": "American (New)"}], "rating": 4.5, "coordinates": {"latitude": 38.90548, "longitude": -77.04452}, "transactions": [], "price": "$$$", "location": {"address1": "1990 M St NW", "address2": "", "address3": null, "city": "Washington, DC", "zip_code": "20036", "country": "US", "state": "DC", "display_address": ["1990 M St NW", "Washington, DC 20036"]}, "phone": "+12026591990", "display_phone": "(202) 659-1990", "distance": 1370.2094433589798}, {"id": "gSP06A0M972ahIlU3ivy2w", "alias": "farmbird-washington", "name": "Farmbird", "image_url": "https://s3-media2.fl.yelpcdn.com/bphoto/NX30efZFI--IryN9J6Vvjg/o.jpg", "is_closed": false, "url": "https://www.yelp.com/biz/farmbird-washington?adjust_creative=aJsm0qZM7l1f7g6leJfetg&utm_campaign=yelp_api_v3&utm_medium=api_v3_business_search&utm_source=aJsm0qZM7l1f7g6leJfetg", "review_count": 240, "categories": [{"alias": "chickenshop", "title": "Chicken Shop"}, {"alias": "newamerican", "title": "American (New)"}, {"alias": "tradamerican", "title": "American (Traditional)"}], "rating": 5.0, "coordinates": {"latitude": 38.89984, "longitude": -76.99734}, "transactions": [], "price": "$$", "location": {"address1": "625A H St NE", "address2": null, "address3": "", "city": "Washington, DC", "zip_code": "20002", "country": "US", "state": "DC", "display_address": ["625A H St NE", "Washington, DC 20002"]}, "phone": "+12025066778", "display_phone": "(202) 506-6778", "distance": 3154.9976038444765}, {"id": "ZVuno8nH-XdNxfKcIPJCBA", "alias": "momofuku-ccdc-washington", "name": "Momofuku CCDC", "image_url": "https://s3-media3.fl.yelpcdn.com/bphoto/Un8jeQoRnIWPoGbGLkcoAA/o.jpg", "is_closed": false, "url": "https://www.yelp.com/biz/momofuku-ccdc-washington?adjust_creative=aJsm0qZM7l1f7g6leJfetg&utm_campaign=yelp_api_v3&utm_medium=api_v3_business_search&utm_source=aJsm0qZM7l1f7g6leJfetg", "review_count": 1239, "categories": [{"alias": "newamerican", "title": "American (New)"}, {"alias": "bars", "title": "Bars"}], "rating": 3.5, "coordinates": {"latitude": 38.900645289298, "longitude": -77.0269804269836}, "transactions": [], "price": "$$", "location": {"address1": "1090 I St NW", "address2": "", "address3": "", "city": "Washington, DC", "zip_code": "20001", "country": "US", "state": "DC", "display_address": ["1090 I St NW", "Washington, DC 20001"]}, "phone": "+12026021832", "display_phone": "(202) 602-1832", "distance": 1225.6388652144233}, {"id": "si_pqK5Ogi5MZdO-aN_gXw", "alias": "churchkey-washington", "name": "ChurchKey", "image_url": "https://s3-media1.fl.yelpcdn.com/bphoto/yBfvlN5GoMnzcBQXROFxjg/o.jpg", "is_closed": false, "url": "https://www.yelp.com/biz/churchkey-washington?adjust_creative=aJsm0qZM7l1f7g6leJfetg&utm_campaign=yelp_api_v3&utm_medium=api_v3_business_search&utm_source=aJsm0qZM7l1f7g6leJfetg", "review_count": 1310, "categories": [{"alias": "newamerican", "title": "American (New)"}, {"alias": "lounges", "title": "Lounges"}], "rating": 4.0, "coordinates": {"latitude": 38.9084128488013, "longitude": -77.0318697756855}, "transactions": [], "price": "$$", "location": {"address1": "1337 14th St NW", "address2": "Fl 2", "address3": "", "city": "Washington, DC", "zip_code": "20005", "country": "US", "state": "DC", "display_address": ["1337 14th St NW", "Fl 2", "Washington, DC 20005"]}, "phone": "+12025672576", "display_phone": "(202) 567-2576", "distance": 337.5419810902074}, {"id": "GBkFa8TJwkaUJsJXXGkTTg", "alias": "zaytinya-washington", "name": "Zaytinya", "image_url": "https://s3-media2.fl.yelpcdn.com/bphoto/qf8Mc1iHho1dN-CJFItEwQ/o.jpg", "is_closed": false, "url": "https://www.yelp.com/biz/zaytinya-washington?adjust_creative=aJsm0qZM7l1f7g6leJfetg&utm_campaign=yelp_api_v3&utm_medium=api_v3_business_search&utm_source=aJsm0qZM7l1f7g6leJfetg", "review_count": 3899, "categories": [{"alias": "greek", "title": "Greek"}, {"alias": "turkish", "title": "Turkish"}, {"alias": "lebanese", "title": "Lebanese"}], "rating": 4.0, "coordinates": {"latitude": 38.89904, "longitude": -77.02349}, "transactions": ["restaurant_reservation"], "price": "$$$", "location": {"address1": "701 9th St NW", "address2": "", "address3": "", "city": "Washington, DC", "zip_code": "20001", "country": "US", "state": "DC", "display_address": ["701 9th St NW", "Washington, DC 20001"]}, "phone": "+12026380800", "display_phone": "(202) 638-0800", "distance": 1481.365422299578}, {"id": "WppJF-TACHbCmmRSol8pxA", "alias": "brick-lane-washington", "name": "Brick Lane", "image_url": "https://s3-media2.fl.yelpcdn.com/bphoto/IQBa2xawNRCm3uZdOC6gRw/o.jpg", "is_closed": false, "url": "https://www.yelp.com/biz/brick-lane-washington?adjust_creative=aJsm0qZM7l1f7g6leJfetg&utm_campaign=yelp_api_v3&utm_medium=api_v3_business_search&utm_source=aJsm0qZM7l1f7g6leJfetg", "review_count": 297, "categories": [{"alias": "breakfast_brunch", "title": "Breakfast & Brunch"}, {"alias": "newamerican", "title": "American (New)"}], "rating": 4.0, "coordinates": {"latitude": 38.91234, "longitude": -77.03881}, "transactions": ["pickup", "delivery"], "price": "$$", "location": {"address1": "1636 17th St NW", "address2": "", "address3": "", "city": "Washington, DC", "zip_code": "20009", "country": "US", "state": "DC", "display_address": ["1636 17th St NW", "Washington, DC 20009"]}, "phone": "+12025255309", "display_phone": "(202) 525-5309", "distance": 708.5189562354869}, {"id": "d8OkzEjusLXsGI53V2z5BQ", "alias": "radiator-washington-2", "name": "Radiator", "image_url": "https://s3-media3.fl.yelpcdn.com/bphoto/8fiosTa4lMJNvYFBxdB-Cg/o.jpg", "is_closed": false, "url": "https://www.yelp.com/biz/radiator-washington-2?adjust_creative=aJsm0qZM7l1f7g6leJfetg&utm_campaign=yelp_api_v3&utm_medium=api_v3_business_search&utm_source=aJsm0qZM7l1f7g6leJfetg", "review_count": 128, "categories": [{"alias": "tapasmallplates", "title": "Tapas/Small Plates"}, {"alias": "gastropubs", "title": "Gastropubs"}, {"alias": "cocktailbars", "title": "Cocktail Bars"}], "rating": 4.0, "coordinates": {"latitude": 38.9080299, "longitude": -77.03295}, "transactions": [], "price": "$$", "location": {"address1": "1430 Rhode Island Ave NW", "address2": "Ste 100", "address3": null, "city": "Washington, DC", "zip_code": "20005", "country": "US", "state": "DC", "display_address": ["1430 Rhode Island Ave NW", "Ste 100", "Washington, DC 20005"]}, "phone": "+12027423150", "display_phone": "(202) 742-3150", "distance": 409.40625909611407}, {"id": "bCQEdpKSY563iAzq7cMcGA", "alias": "the-capital-burger-washington-5", "name": "The Capital Burger", "image_url": "https://s3-media2.fl.yelpcdn.com/bphoto/ExptMKUD9Uu_dPuQgpuAOA/o.jpg", "is_closed": false, "url": "https://www.yelp.com/biz/the-capital-burger-washington-5?adjust_creative=aJsm0qZM7l1f7g6leJfetg&utm_campaign=yelp_api_v3&utm_medium=api_v3_business_search&utm_source=aJsm0qZM7l1f7g6leJfetg", "review_count": 79, "categories": [{"alias": "burgers", "title": "Burgers"}, {"alias": "cocktailbars", "title": "Cocktail Bars"}, {"alias": "tradamerican", "title": "American (Traditional)"}], "rating": 4.0, "coordinates": {"latitude": 38.90325, "longitude": -77.0216}, "transactions": [], "price": "$$", "location": {"address1": "1005 7th St NW", "address2": null, "address3": null, "city": "Washington, DC", "zip_code": "20001", "country": "US", "state": "DC", "display_address": ["1005 7th St NW", "Washington, DC 20001"]}, "phone": "+12026380414", "display_phone": "(202) 638-0414", "distance": 1183.9531017918878}, {"id": "8m22ZO0_-qLjLPRrL2zawA", "alias": "the-alibi-washington", "name": "The Alibi", "image_url": "https://s3-media2.fl.yelpcdn.com/bphoto/dx1-GLxRiobTMKoDfWKMxw/o.jpg", "is_closed": false, "url": "https://www.yelp.com/biz/the-alibi-washington?adjust_creative=aJsm0qZM7l1f7g6leJfetg&utm_campaign=yelp_api_v3&utm_medium=api_v3_business_search&utm_source=aJsm0qZM7l1f7g6leJfetg", "review_count": 230, "categories": [{"alias": "british", "title": "British"}, {"alias": "pubs", "title": "Pubs"}, {"alias": "seafood", "title": "Seafood"}], "rating": 4.5, "coordinates": {"latitude": 38.89338, "longitude": -77.01346}, "transactions": [], "price": "$$", "location": {"address1": "237 2nd St NW", "address2": null, "address3": "", "city": "Washington, DC", "zip_code": "20001", "country": "US", "state": "DC", "display_address": ["237 2nd St NW", "Washington, DC 20001"]}, "phone": "+12023472237", "display_phone": "(202) 347-2237", "distance": 2482.9998854957707}, {"id": "uPxaHQsTtZ-Km8arqPsPCA", "alias": "fancy-radish-washington", "name": "Fancy Radish", "image_url": "https://s3-media2.fl.yelpcdn.com/bphoto/MV-9MpHHk0LhjIs6o5oFUQ/o.jpg", "is_closed": false, "url": "https://www.yelp.com/biz/fancy-radish-washington?adjust_creative=aJsm0qZM7l1f7g6leJfetg&utm_campaign=yelp_api_v3&utm_medium=api_v3_business_search&utm_source=aJsm0qZM7l1f7g6leJfetg", "review_count": 14, "categories": [{"alias": "newamerican", "title": "American (New)"}, {"alias": "vegan", "title": "Vegan"}], "rating": 4.5, "coordinates": {"latitude": 38.9002534957578, "longitude": -76.998243165546}, "transactions": [], "price": "$$", "location": {"address1": "600 H St NE", "address2": "", "address3": null, "city": "Washington, DC", "zip_code": "20002", "country": "US", "state": "DC", "display_address": ["600 H St NE", "Washington, DC 20002"]}, "phone": "+12026758341", "display_phone": "(202) 675-8341", "distance": 3060.266148984467}, {"id": "IMUlQlXTqgsWTUZLifuRZQ", "alias": "clydes-of-georgetown-washington-3", "name": "Clyde's of Georgetown", "image_url": "https://s3-media1.fl.yelpcdn.com/bphoto/nAcmAyy06eMUIJHA4HK0ow/o.jpg", "is_closed": false, "url": "https://www.yelp.com/biz/clydes-of-georgetown-washington-3?adjust_creative=aJsm0qZM7l1f7g6leJfetg&utm_campaign=yelp_api_v3&utm_medium=api_v3_business_search&utm_source=aJsm0qZM7l1f7g6leJfetg", "review_count": 889, "categories": [{"alias": "tradamerican", "title": "American (Traditional)"}, {"alias": "bars", "title": "Bars"}], "rating": 4.0, "coordinates": {"latitude": 38.9049110412598, "longitude": -77.0640258789062}, "transactions": [], "price": "$$", "location": {"address1": "3236 M St NW", "address2": "", "address3": "", "city": "Washington, DC", "zip_code": "20007", "country": "US", "state": "DC", "display_address": ["3236 M St NW", "Washington, DC 20007"]}, "phone": "+12023339180", "display_phone": "(202) 333-9180", "distance": 2976.1056180063392}, {"id": "j825_HsjCyUQmbBt0lQuHQ", "alias": "birch-and-barley-washington", "name": "Birch & Barley", "image_url": "https://s3-media3.fl.yelpcdn.com/bphoto/U493szr8esw79R2DFcnflQ/o.jpg", "is_closed": false, "url": "https://www.yelp.com/biz/birch-and-barley-washington?adjust_creative=aJsm0qZM7l1f7g6leJfetg&utm_campaign=yelp_api_v3&utm_medium=api_v3_business_search&utm_source=aJsm0qZM7l1f7g6leJfetg", "review_count": 1014, "categories": [{"alias": "newamerican", "title": "American (New)"}, {"alias": "breakfast_brunch", "title": "Breakfast & Brunch"}], "rating": 4.0, "coordinates": {"latitude": 38.90848, "longitude": -77.03148}, "transactions": [], "price": "$$$", "location": {"address1": "1337 14th St NW", "address2": "", "address3": "", "city": "Washington, DC", "zip_code": "20005", "country": "US", "state": "DC", "display_address": ["1337 14th St NW", "Washington, DC 20005"]}, "phone": "+12025672576", "display_phone": "(202) 567-2576", "distance": 317.88954292148657}, {"id": "axnuD2onVoJY7C8y-7ywYw", "alias": "busboys-and-poets-5th-and-k-washington-2", "name": "Busboys and Poets - 5th and K", "image_url": "https://s3-media2.fl.yelpcdn.com/bphoto/4V-vsX2upfOxpDdyAV-lGA/o.jpg", "is_closed": false, "url": "https://www.yelp.com/biz/busboys-and-poets-5th-and-k-washington-2?adjust_creative=aJsm0qZM7l1f7g6leJfetg&utm_campaign=yelp_api_v3&utm_medium=api_v3_business_search&utm_source=aJsm0qZM7l1f7g6leJfetg", "review_count": 1564, "categories": [{"alias": "tradamerican", "title": "American (Traditional)"}, {"alias": "breakfast_brunch", "title": "Breakfast & Brunch"}, {"alias": "mediterranean", "title": "Mediterranean"}], "rating": 4.0, "coordinates": {"latitude": 38.9028, "longitude": -77.018671}, "transactions": ["restaurant_reservation"], "price": "$$", "location": {"address1": "1025 5th St NW", "address2": "", "address3": "", "city": "Washington, DC", "zip_code": "20001", "country": "US", "state": "DC", "display_address": ["1025 5th St NW", "Washington, DC 20001"]}, "phone": "+12027892227", "display_phone": "(202) 789-2227", "distance": 1401.6007762925606}, {"id": "a-5Jd4irVqkaxRs-AQ-HGw", "alias": "roses-luxury-washington", "name": "Rose's Luxury", "image_url": "https://s3-media3.fl.yelpcdn.com/bphoto/AwhITdGBJkXIYG_ylabsQg/o.jpg", "is_closed": false, "url": "https://www.yelp.com/biz/roses-luxury-washington?adjust_creative=aJsm0qZM7l1f7g6leJfetg&utm_campaign=yelp_api_v3&utm_medium=api_v3_business_search&utm_source=aJsm0qZM7l1f7g6leJfetg", "review_count": 1642, "categories": [{"alias": "newamerican", "title": "American (New)"}, {"alias": "italian", "title": "Italian"}], "rating": 4.5, "coordinates": {"latitude": 38.88063, "longitude": -76.99534}, "transactions": [], "price": "$$$", "location": {"address1": "717 8th St SE", "address2": null, "address3": "", "city": "Washington, DC", "zip_code": "20003", "country": "US", "state": "DC", "display_address": ["717 8th St SE", "Washington, DC 20003"]}, "phone": "+12025808889", "display_phone": "(202) 580-8889", "distance": 4577.759949213042}, {"id": "uKdR9MY-hnkSWak3KuvsZQ", "alias": "tabard-inn-restaurant-washington-2", "name": "Tabard Inn Restaurant", "image_url": "https://s3-media1.fl.yelpcdn.com/bphoto/eDpzKj4Cd3gButUE3BZGFA/o.jpg", "is_closed": false, "url": "https://www.yelp.com/biz/tabard-inn-restaurant-washington-2?adjust_creative=aJsm0qZM7l1f7g6leJfetg&utm_campaign=yelp_api_v3&utm_medium=api_v3_business_search&utm_source=aJsm0qZM7l1f7g6leJfetg", "review_count": 1502, "categories": [{"alias": "tradamerican", "title": "American (Traditional)"}, {"alias": "breakfast_brunch", "title": "Breakfast & Brunch"}, {"alias": "burgers", "title": "Burgers"}], "rating": 4.0, "coordinates": {"latitude": 38.90746, "longitude": -77.03999}, "transactions": [], "price": "$$", "location": {"address1": "1739 N St NW", "address2": "", "address3": "", "city": "Washington, DC", "zip_code": "20036", "country": "US", "state": "DC", "display_address": ["1739 N St NW", "Washington, DC 20036"]}, "phone": "+12023318528", "display_phone": "(202) 331-8528", "distance": 913.745225409146}, {"id": "A-89i7_ipR-QOlg4Z1echQ", "alias": "kaliwa-washington", "name": "Kaliwa", "image_url": "https://s3-media1.fl.yelpcdn.com/bphoto/0HYlo4zwWCPphEhmqFpsXQ/o.jpg", "is_closed": false, "url": "https://www.yelp.com/biz/kaliwa-washington?adjust_creative=aJsm0qZM7l1f7g6leJfetg&utm_campaign=yelp_api_v3&utm_medium=api_v3_business_search&utm_source=aJsm0qZM7l1f7g6leJfetg", "review_count": 55, "categories": [{"alias": "filipino", "title": "Filipino"}, {"alias": "thai", "title": "Thai"}, {"alias": "korean", "title": "Korean"}], "rating": 3.0, "coordinates": {"latitude": 38.8784577, "longitude": -77.0239817}, "transactions": [], "price": "$$", "location": {"address1": "751 Wharf St SW", "address2": "", "address3": null, "city": "Washington, DC", "zip_code": "20024", "country": "US", "state": "DC", "display_address": ["751 Wharf St SW", "Washington, DC 20024"]}, "phone": "+12025164739", "display_phone": "(202) 516-4739", "distance": 3673.970687713146}, {"id": "gpRqZNVKt_7tPunHbrSCxg", "alias": "b-penn-quarter-washington-2", "name": "b DC Penn Quarter", "image_url": "https://s3-media2.fl.yelpcdn.com/bphoto/phGyyZpW8zfsGpejmPlwKw/o.jpg", "is_closed": false, "url": "https://www.yelp.com/biz/b-penn-quarter-washington-2?adjust_creative=aJsm0qZM7l1f7g6leJfetg&utm_campaign=yelp_api_v3&utm_medium=api_v3_business_search&utm_source=aJsm0qZM7l1f7g6leJfetg", "review_count": 1049, "categories": [{"alias": "burgers", "title": "Burgers"}, {"alias": "newamerican", "title": "American (New)"}, {"alias": "beerbar", "title": "Beer Bar"}], "rating": 4.0, "coordinates": {"latitude": 38.8942947129763, "longitude": -77.0233643521111}, "transactions": ["pickup", "delivery"], "price": "$$", "location": {"address1": "801 Pennsylvania Ave NW", "address2": null, "address3": "", "city": "Washington, DC", "zip_code": "20004", "country": "US", "state": "DC", "display_address": ["801 Pennsylvania Ave NW", "Washington, DC 20004"]}, "phone": "+12028088720", "display_phone": "(202) 808-8720", "distance": 1992.269556236805}, {"id": "RQN0Dj9tKLbzZG8ByY3N2A", "alias": "barrel-washington", "name": "Barrel", "image_url": "https://s3-media1.fl.yelpcdn.com/bphoto/BIs2JOcOq89wjzltuSvD4g/o.jpg", "is_closed": false, "url": "https://www.yelp.com/biz/barrel-washington?adjust_creative=aJsm0qZM7l1f7g6leJfetg&utm_campaign=yelp_api_v3&utm_medium=api_v3_business_search&utm_source=aJsm0qZM7l1f7g6leJfetg", "review_count": 583, "categories": [{"alias": "newamerican", "title": "American (New)"}, {"alias": "cocktailbars", "title": "Cocktail Bars"}, {"alias": "breakfast_brunch", "title": "Breakfast & Brunch"}], "rating": 4.5, "coordinates": {"latitude": 38.8851357980807, "longitude": -76.9978595803566}, "transactions": [], "price": "$$", "location": {"address1": "613 Pennsylvania Ave SE", "address2": "", "address3": "", "city": "Washington, DC", "zip_code": "20003", "country": "US", "state": "DC", "display_address": ["613 Pennsylvania Ave SE", "Washington, DC 20003"]}, "phone": "+12025433622", "display_phone": "(202) 543-3622", "distance": 4062.897485583164}, {"id": "vWp0l1cdmNNyUFi7F5ndTQ", "alias": "farmers-and-distillers-washington-2", "name": "Farmers & Distillers", "image_url": "https://s3-media1.fl.yelpcdn.com/bphoto/e4pzNfSwq1Vtky92NivjLQ/o.jpg", "is_closed": false, "url": "https://www.yelp.com/biz/farmers-and-distillers-washington-2?adjust_creative=aJsm0qZM7l1f7g6leJfetg&utm_campaign=yelp_api_v3&utm_medium=api_v3_business_search&utm_source=aJsm0qZM7l1f7g6leJfetg", "review_count": 935, "categories": [{"alias": "breakfast_brunch", "title": "Breakfast & Brunch"}, {"alias": "tradamerican", "title": "American (Traditional)"}, {"alias": "distilleries", "title": "Distilleries"}], "rating": 3.5, "coordinates": {"latitude": 38.90123, "longitude": -77.02075}, "transactions": [], "price": "$$", "location": {"address1": "600 Massachusetts Ave NW", "address2": null, "address3": null, "city": "Washington, DC", "zip_code": "20001", "country": "US", "state": "DC", "display_address": ["600 Massachusetts Ave NW", "Washington, DC 20001"]}, "phone": "+12024643001", "display_phone": "(202) 464-3001", "distance": 1433.1447221184303}, {"id": "2VJ8gEpYhRODfIi1YRaGeQ", "alias": "district-kitchen-washington", "name": "District Kitchen", "image_url": "https://s3-media3.fl.yelpcdn.com/bphoto/shGHDuCZM7CEhepXBrejHQ/o.jpg", "is_closed": false, "url": "https://www.yelp.com/biz/district-kitchen-washington?adjust_creative=aJsm0qZM7l1f7g6leJfetg&utm_campaign=yelp_api_v3&utm_medium=api_v3_business_search&utm_source=aJsm0qZM7l1f7g6leJfetg", "review_count": 314, "categories": [{"alias": "newamerican", "title": "American (New)"}], "rating": 3.5, "coordinates": {"latitude": 38.9238692075014, "longitude": -77.0517721027136}, "transactions": ["pickup", "delivery"], "price": "$$", "location": {"address1": "2606 Connecticut Ave NW", "address2": "", "address3": "", "city": "Washington, DC", "zip_code": "20008", "country": "US", "state": "DC", "display_address": ["2606 Connecticut Ave NW", "Washington, DC 20008"]}, "phone": "+12022389408", "display_phone": "(202) 238-9408", "distance": 2310.746707896158}, {"id": "xH-lzsOv7ZlapoPfOlWL6w", "alias": "floriana-washington", "name": "Floriana", "image_url": "https://s3-media1.fl.yelpcdn.com/bphoto/a8JLD1j_ZIqfcR6TW-wLew/o.jpg", "is_closed": false, "url": "https://www.yelp.com/biz/floriana-washington?adjust_creative=aJsm0qZM7l1f7g6leJfetg&utm_campaign=yelp_api_v3&utm_medium=api_v3_business_search&utm_source=aJsm0qZM7l1f7g6leJfetg", "review_count": 586, "categories": [{"alias": "italian", "title": "Italian"}], "rating": 4.0, "coordinates": {"latitude": 38.91133287092, "longitude": -77.0386550000805}, "transactions": [], "price": "$$", "location": {"address1": "1602 17th St NW", "address2": null, "address3": "", "city": "Washington, DC", "zip_code": "20009", "country": "US", "state": "DC", "display_address": ["1602 17th St NW", "Washington, DC 20009"]}, "phone": "+12026675937", "display_phone": "(202) 667-5937", "distance": 693.5244712853297}, {"id": "IHu0OfnZrLSFh0QZf0fgFA", "alias": "teds-bulletin-washington-3", "name": "Ted's Bulletin", "image_url": "https://s3-media1.fl.yelpcdn.com/bphoto/mvZFN46KNQqz19I8qfQXsQ/o.jpg", "is_closed": false, "url": "https://www.yelp.com/biz/teds-bulletin-washington-3?adjust_creative=aJsm0qZM7l1f7g6leJfetg&utm_campaign=yelp_api_v3&utm_medium=api_v3_business_search&utm_source=aJsm0qZM7l1f7g6leJfetg", "review_count": 1217, "categories": [{"alias": "diners", "title": "Diners"}, {"alias": "tradamerican", "title": "American (Traditional)"}, {"alias": "gluten_free", "title": "Gluten-Free"}], "rating": 4.0, "coordinates": {"latitude": 38.9147346920003, "longitude": -77.0320553239426}, "transactions": ["pickup"], "price": "$$", "location": {"address1": "1818 14th St NW", "address2": "", "address3": "", "city": "Washington, DC", "zip_code": "20009", "country": "US", "state": "DC", "display_address": ["1818 14th St NW", "Washington, DC 20009"]}, "phone": "+12022658337", "display_phone": "(202) 265-8337", "distance": 401.76091030799637}, {"id": "qWIddvxzfpDpvti9LKjgVw", "alias": "rpm-italian-washington-4", "name": "RPM Italian", "image_url": "https://s3-media2.fl.yelpcdn.com/bphoto/lFIOvaGTgb9_3-yXfmKiQQ/o.jpg", "is_closed": false, "url": "https://www.yelp.com/biz/rpm-italian-washington-4?adjust_creative=aJsm0qZM7l1f7g6leJfetg&utm_campaign=yelp_api_v3&utm_medium=api_v3_business_search&utm_source=aJsm0qZM7l1f7g6leJfetg", "review_count": 637, "categories": [{"alias": "italian", "title": "Italian"}], "rating": 4.0, "coordinates": {"latitude": 38.9023026852199, "longitude": -77.0209709153443}, "transactions": ["delivery", "pickup"], "price": "$$$", "location": {"address1": "650 K St NW", "address2": null, "address3": null, "city": "Washington, DC", "zip_code": "20001", "country": "US", "state": "DC", "display_address": ["650 K St NW", "Washington, DC 20001"]}, "phone": "+12022044480", "display_phone": "(202) 204-4480", "distance": 1303.6148378151909}, {"id": "3T3wwAPqBAUF6nCwaY38gg", "alias": "hen-quarter-washington-2", "name": "Hen Quarter", "image_url": "https://s3-media2.fl.yelpcdn.com/bphoto/ZOUdxF9sl1RttgSjdtnGCw/o.jpg", "is_closed": false, "url": "https://www.yelp.com/biz/hen-quarter-washington-2?adjust_creative=aJsm0qZM7l1f7g6leJfetg&utm_campaign=yelp_api_v3&utm_medium=api_v3_business_search&utm_source=aJsm0qZM7l1f7g6leJfetg", "review_count": 485, "categories": [{"alias": "southern", "title": "Southern"}, {"alias": "breakfast_brunch", "title": "Breakfast & Brunch"}], "rating": 4.0, "coordinates": {"latitude": 38.89594, "longitude": -77.02245}, "transactions": ["delivery", "pickup"], "price": "$$", "location": {"address1": "750 E St NW", "address2": null, "address3": "", "city": "Washington, DC", "zip_code": "20004", "country": "US", "state": "DC", "display_address": ["750 E St NW", "Washington, DC 20004"]}, "phone": "+12022487036", "display_phone": "(202) 248-7036", "distance": 1846.1454072992126}, {"id": "6Qhmt1jo7BMcFcp41fPFVg", "alias": "the-hamilton-washington", "name": "The Hamilton", "image_url": "https://s3-media4.fl.yelpcdn.com/bphoto/ipDSjPuK17lg5W02aqLkiw/o.jpg", "is_closed": false, "url": "https://www.yelp.com/biz/the-hamilton-washington?adjust_creative=aJsm0qZM7l1f7g6leJfetg&utm_campaign=yelp_api_v3&utm_medium=api_v3_business_search&utm_source=aJsm0qZM7l1f7g6leJfetg", "review_count": 1880, "categories": [{"alias": "seafood", "title": "Seafood"}, {"alias": "newamerican", "title": "American (New)"}, {"alias": "musicvenues", "title": "Music Venues"}], "rating": 3.5, "coordinates": {"latitude": 38.8974544016632, "longitude": -77.0320804809509}, "transactions": [], "price": "$$", "location": {"address1": "600 14th St NW", "address2": "", "address3": "", "city": "Washington, DC", "zip_code": "20005", "country": "US", "state": "DC", "display_address": ["600 14th St NW", "Washington, DC 20005"]}, "phone": "+12027871000", "display_phone": "(202) 787-1000", "distance": 1543.8863560302686}, {"id": "pyweoOYT-ChxU6oqOfe9-g", "alias": "homestead-washington", "name": "Homestead", "image_url": "https://s3-media1.fl.yelpcdn.com/bphoto/LzfdPTYnXdaoHijMniSWdQ/o.jpg", "is_closed": false, "url": "https://www.yelp.com/biz/homestead-washington?adjust_creative=aJsm0qZM7l1f7g6leJfetg&utm_campaign=yelp_api_v3&utm_medium=api_v3_business_search&utm_source=aJsm0qZM7l1f7g6leJfetg", "review_count": 171, "categories": [{"alias": "cocktailbars", "title": "Cocktail Bars"}, {"alias": "cideries", "title": "Cideries"}, {"alias": "tradamerican", "title": "American (Traditional)"}], "rating": 4.0, "coordinates": {"latitude": 38.93915, "longitude": -77.02443}, "transactions": ["restaurant_reservation"], "price": "$$", "location": {"address1": "3911 Georgia Ave NW", "address2": "", "address3": null, "city": "Washington, DC", "zip_code": "20011", "country": "US", "state": "DC", "display_address": ["3911 Georgia Ave NW", "Washington, DC 20011"]}, "phone": "+12026272371", "display_phone": "(202) 627-2371", "distance": 3143.898099316556}, {"id": "9uuDSvj9b7ntCq0ETuizzg", "alias": "bistrot-du-coin-washington", "name": "Bistrot Du Coin", "image_url": "https://s3-media1.fl.yelpcdn.com/bphoto/reo650O5CS79C8EX_2qS0A/o.jpg", "is_closed": false, "url": "https://www.yelp.com/biz/bistrot-du-coin-washington?adjust_creative=aJsm0qZM7l1f7g6leJfetg&utm_campaign=yelp_api_v3&utm_medium=api_v3_business_search&utm_source=aJsm0qZM7l1f7g6leJfetg", "review_count": 1527, "categories": [{"alias": "french", "title": "French"}], "rating": 4.0, "coordinates": {"latitude": 38.913852, "longitude": -77.046112}, "transactions": ["pickup", "delivery"], "price": "$$", "location": {"address1": "1738 Connecticut Ave NW", "address2": "", "address3": "", "city": "Washington, DC", "zip_code": "20009", "country": "US", "state": "DC", "display_address": ["1738 Connecticut Ave NW", "Washington, DC 20009"]}, "phone": "+12022346969", "display_phone": "(202) 234-6969", "distance": 1368.5814638667714}, {"id": "734GUmdnKEElSIC0jkK2wg", "alias": "hazel-washington", "name": "Hazel", "image_url": "https://s3-media3.fl.yelpcdn.com/bphoto/RJxx5Y6AAhZ6RDfa_YDRKQ/o.jpg", "is_closed": false, "url": "https://www.yelp.com/biz/hazel-washington?adjust_creative=aJsm0qZM7l1f7g6leJfetg&utm_campaign=yelp_api_v3&utm_medium=api_v3_business_search&utm_source=aJsm0qZM7l1f7g6leJfetg", "review_count": 222, "categories": [{"alias": "newamerican", "title": "American (New)"}], "rating": 4.0, "coordinates": {"latitude": 38.91771286726, "longitude": -77.0231831073761}, "transactions": [], "price": "$$$", "location": {"address1": "808 V St NW", "address2": "", "address3": null, "city": "Washington, DC", "zip_code": "20001", "country": "US", "state": "DC", "display_address": ["808 V St NW", "Washington, DC 20001"]}, "phone": "+12028474980", "display_phone": "(202) 847-4980", "distance": 957.3041290043133}, {"id": "u4J0llPPQDXNuRq2mNX6LQ", "alias": "boqueria-washington-3", "name": "Boqueria", "image_url": "https://s3-media1.fl.yelpcdn.com/bphoto/0caIitnwq9H6d4KtQmaLWQ/o.jpg", "is_closed": false, "url": "https://www.yelp.com/biz/boqueria-washington-3?adjust_creative=aJsm0qZM7l1f7g6leJfetg&utm_campaign=yelp_api_v3&utm_medium=api_v3_business_search&utm_source=aJsm0qZM7l1f7g6leJfetg", "review_count": 950, "categories": [{"alias": "tapas", "title": "Tapas Bars"}, {"alias": "spanish", "title": "Spanish"}], "rating": 4.0, "coordinates": {"latitude": 38.90592, "longitude": -77.04313}, "transactions": ["delivery", "pickup"], "price": "$$$", "location": {"address1": "1837 M St NW", "address2": null, "address3": "", "city": "Washington, DC", "zip_code": "20036", "country": "US", "state": "DC", "display_address": ["1837 M St NW", "Washington, DC 20036"]}, "phone": "+12025520392", "display_phone": "(202) 552-0392", "distance": 1235.6147293334245}, {"id": "mC5THK334Eo0Awv4JE-lnA", "alias": "teds-bulletin-washington", "name": "Ted's Bulletin", "image_url": "https://s3-media4.fl.yelpcdn.com/bphoto/LjNwRv6GvfS87cQ8a1Tazw/o.jpg", "is_closed": false, "url": "https://www.yelp.com/biz/teds-bulletin-washington?adjust_creative=aJsm0qZM7l1f7g6leJfetg&utm_campaign=yelp_api_v3&utm_medium=api_v3_business_search&utm_source=aJsm0qZM7l1f7g6leJfetg", "review_count": 1738, "categories": [{"alias": "breakfast_brunch", "title": "Breakfast & Brunch"}, {"alias": "tradamerican", "title": "American (Traditional)"}, {"alias": "sandwiches", "title": "Sandwiches"}], "rating": 4.0, "coordinates": {"latitude": 38.882453918457, "longitude": -76.9953384399414}, "transactions": ["pickup"], "price": "$$", "location": {"address1": "505 8th St SE", "address2": "", "address3": "", "city": "Washington, DC", "zip_code": "20003", "country": "US", "state": "DC", "display_address": ["505 8th St SE", "Washington, DC 20003"]}, "phone": "+12025448337", "display_phone": "(202) 544-8337", "distance": 4427.962598177808}, {"id": "z-0HVe5rSr3v2_EG127YjA", "alias": "grillfish-dc-washington", "name": "Grillfish DC", "image_url": "https://s3-media4.fl.yelpcdn.com/bphoto/sQYUqJeY79eaptzfUteSBQ/o.jpg", "is_closed": false, "url": "https://www.yelp.com/biz/grillfish-dc-washington?adjust_creative=aJsm0qZM7l1f7g6leJfetg&utm_campaign=yelp_api_v3&utm_medium=api_v3_business_search&utm_source=aJsm0qZM7l1f7g6leJfetg", "review_count": 568, "categories": [{"alias": "seafood", "title": "Seafood"}, {"alias": "breakfast_brunch", "title": "Breakfast & Brunch"}, {"alias": "tradamerican", "title": "American (Traditional)"}], "rating": 4.0, "coordinates": {"latitude": 38.9057085655327, "longitude": -77.0477194018524}, "transactions": ["delivery", "pickup"], "price": "$$", "location": {"address1": "1200 New Hampshire Ave NW", "address2": "", "address3": "", "city": "Washington, DC", "zip_code": "20036", "country": "US", "state": "DC", "display_address": ["1200 New Hampshire Ave NW", "Washington, DC 20036"]}, "phone": "+12023317310", "display_phone": "(202) 331-7310", "distance": 1603.0288520245542}, {"id": "MP6K_2ye4QRoG26tjGJGDA", "alias": "joes-seafood-prime-steak-and-stone-crab-washington", "name": "Joe's Seafood, Prime Steak & Stone Crab", "image_url": "https://s3-media2.fl.yelpcdn.com/bphoto/qytXjs_MWond0QL0usI9RA/o.jpg", "is_closed": false, "url": "https://www.yelp.com/biz/joes-seafood-prime-steak-and-stone-crab-washington?adjust_creative=aJsm0qZM7l1f7g6leJfetg&utm_campaign=yelp_api_v3&utm_medium=api_v3_business_search&utm_source=aJsm0qZM7l1f7g6leJfetg", "review_count": 903, "categories": [{"alias": "seafood", "title": "Seafood"}, {"alias": "steak", "title": "Steakhouses"}, {"alias": "breakfast_brunch", "title": "Breakfast & Brunch"}], "rating": 4.0, "coordinates": {"latitude": 38.9000975754609, "longitude": -77.0337614773155}, "transactions": [], "price": "$$$", "location": {"address1": "750 15th St NW", "address2": "", "address3": "", "city": "Washington, DC", "zip_code": "20005", "country": "US", "state": "DC", "display_address": ["750 15th St NW", "Washington, DC 20005"]}, "phone": "+12024890140", "display_phone": "(202) 489-0140", "distance": 1273.9066580130389}, {"id": "32w5iRuwgv14ALBjTNSU1Q", "alias": "proper-21-washington", "name": "Proper 21", "image_url": "https://s3-media2.fl.yelpcdn.com/bphoto/d08xVmP2C5oF_rK7dsqlsQ/o.jpg", "is_closed": false, "url": "https://www.yelp.com/biz/proper-21-washington?adjust_creative=aJsm0qZM7l1f7g6leJfetg&utm_campaign=yelp_api_v3&utm_medium=api_v3_business_search&utm_source=aJsm0qZM7l1f7g6leJfetg", "review_count": 245, "categories": [{"alias": "bars", "title": "Bars"}, {"alias": "newamerican", "title": "American (New)"}], "rating": 3.5, "coordinates": {"latitude": 38.8976492, "longitude": -77.0306172}, "transactions": ["delivery", "pickup"], "price": "$$", "location": {"address1": "1319 F St NW", "address2": null, "address3": null, "city": "Washington, DC", "zip_code": "20004", "country": "US", "state": "DC", "display_address": ["1319 F St NW", "Washington, DC 20004"]}, "phone": "+12028473674", "display_phone": "(202) 847-3674", "distance": 1517.1846338558842}]